stop_id,stop_name,stop_lat,stop_lon,zone_id,stop_code,wheelchair_boarding
76142,Terminus Centre-Ville Porte 13,  45.498142, -73.565918,1,76142,0
76288,Terminus Mansfield Quai 2,  45.498401, -73.564190,1,76288,0
80000,Arthur-Sauvé / Hémond,  45.561037, -73.898719,5,80000,0
80001,Féré / Latour,  45.556113, -73.898242,5,80001,0
80002,Féré / du Plateau,  45.554767, -73.896413,5,80002,0
80003,Féré / Dumont,  45.553729, -73.895030,5,80003,0
80004,Féré / d'Oka,  45.552990, -73.894176,5,80004,0
80005,Guy / 2e Avenue Nord,  45.551422, -73.894812,5,80005,0
80006,Guy / 2e Avenue,  45.550699, -73.895860,5,80006,0
80007,Guy / 4e Avenue,  45.549518, -73.897551,5,80007,0
80008,Guy / 6e Avenue,  45.548504, -73.899034,5,80008,0
80009,Guy / 8e Avenue,  45.547518, -73.900500,5,80009,0
80010,d'Oka / 9e Avenue,  45.541094, -73.893333,5,80010,0
80011,8e Avenue / Henri-Dunant,  45.544392, -73.896530,5,80011,0
80013,d'Oka / 11e Avenue,  45.539941, -73.894525,5,80013,0
80015,Terminus Le Carrefour,  45.568654, -73.747570,3,80015,0
80016,Le Carrefour / Terminus le Carrefour,  45.569211, -73.748086,3,80016,0
80019,13e Avenue / 38e Rue,  45.512310, -73.962978,6,80019,0
80020,d'Oka / 14e Avenue,  45.537788, -73.896619,5,80020,0
80021,d'Oka / 16e Avenue,  45.536941, -73.898281,5,80021,0
80022,d'Oka / 18e Avenue,  45.535983, -73.900010,5,80022,0
80023,d'Oka / 20e Avenue,  45.534881, -73.901678,5,80023,0
80024,13e Avenue / devant le civique #435,  45.510467, -73.960391,6,80024,0
80025,13e Avenue / de la Chapelle,  45.507220, -73.955968,6,80025,0
80026,de la Chapelle / 18e Avenue,  45.504777, -73.958081,6,80026,0
80027,de la Chapelle / 25e Avenue,  45.503070, -73.959636,6,80027,0
80028,Deux-Montagnes / Antonin-Campeau,  45.546597, -73.911985,5,80028,0
80029,Deux-Montagnes / Baudouin,  45.548668, -73.912718,5,80029,0
80030,Deux-Montagnes / Montaigne,  45.556676, -73.915168,5,80030,0
80031,Deux-Montagnes / Baudouin,  45.548632, -73.913073,5,80031,0
80032,Deux-Montagnes / Ovila-Forget,  45.546702, -73.912371,5,80032,0
80034,de la Chapelle / 29e Avenue,  45.502020, -73.962343,6,80034,0
80035,de la Chapelle / 31e Avenue,  45.501580, -73.964014,6,80035,0
80036,des Promenades / devant le Faubourg de la Gare,  45.534288, -73.930010,6,80036,0
80037,de la Chapelle / Basile-Routhier,  45.499777, -73.967332,6,80037,0
80038,de la Chapelle / Montée de la Baie,  45.498619, -73.969925,6,80038,0
80039,de l'Érablière / des Laurentides,  45.679220, -73.778967,5,80039,0
80040,Montée de la Baie / André-Soucy,  45.500309, -73.972377,6,80040,0
80041,André-Soucy / 43e Avenue,  45.499077, -73.974329,6,80041,0
80042,d'Oka / 20e Avenue,  45.534435, -73.902369,5,80042,0
80043,André-Soucy / 48e Avenue,  45.497302, -73.976908,6,80043,0
80044,André-Soucy / 52e Avenue,  45.495743, -73.979259,6,80044,0
80045,d'Oka / 26e Avenue,  45.532953, -73.907469,5,80045,0
80046,d'Oka / 1re Avenue,  45.532198, -73.911576,6,80046,0
80047,d'Oka / 8e Avenue,  45.532918, -73.921725,6,80047,0
80048,d'Oka / 14e Avenue,  45.531387, -73.926450,6,80048,0
80049,d'Oka / 17e Avenue,  45.530467, -73.928427,6,80049,0
80050,d'Oka / face au civique #2978,  45.529502, -73.931052,6,80050,0
80051,d'Oka / 23e Avenue,  45.528986, -73.935659,6,80051,0
80052,d'Oka / de l'Église,  45.528405, -73.941358,6,80052,0
80053,d'Oka / 30e Avenue,  45.528106, -73.943815,6,80053,0
80054,d'Oka / 33e Avenue,  45.527666, -73.947372,6,80054,0
80055,d'Oka / 35e Avenue,  45.527318, -73.949943,6,80055,0
80056,d'Oka / Claude,  45.526957, -73.952435,6,80056,0
80057,d'Oka / 40e Avenue,  45.526384, -73.955523,6,80057,0
80058,d'Oka / 44e Avenue,  45.525331, -73.958566,6,80058,0
80059,d'Oka / de l'Érablière,  45.524532, -73.960108,6,80059,0
80060,d'Oka / Lucien-Giguère,  45.522454, -73.965782,6,80060,0
80061,d'Oka / Paquin,  45.516956, -73.974273,6,80061,0
80062,André-Soucy / 55e Avenue,  45.494485, -73.981125,6,80062,0
80063,d'Oka / Principal,  45.512793, -73.976923,6,80063,0
80064,André-Soucy / 59e Avenue,  45.493527, -73.982470,6,80064,0
80065,59e Avenue / 39e Rue,  45.495445, -73.985293,6,80065,0
80066,59e Avenue / Route Verte (piste cyclable),  45.497877, -73.988720,6,80066,0
80067,59e Avenue Sud / Dumoulin,  45.499869, -73.991422,6,80067,0
80068,59e Avenue Sud / d'Oka,  45.501684, -73.993888,6,80068,0
80069,d'Oka / devant le civique #4088,  45.503831, -73.989448,6,80069,0
80070,d'Oka / devant le civique #4085,  45.503867, -73.989526,6,80070,0
80071,d'Oka / Croissant l'Écuyer,  45.510417, -73.980118,6,80071,0
80072,d'Oka / Montée de la Baie,  45.508068, -73.983432,6,80072,0
80073,d'Oka / 48e Avenue,  45.505198, -73.987680,6,80073,0
80074,59e Avenue Sud / d'Oka,  45.501526, -73.994018,6,80074,0
80075,59e Avenue Sud / Dumoulin,  45.499918, -73.991738,6,80075,0
80076,59e Avenue / Route Verte (piste cyclable),  45.497892, -73.988820,6,80076,0
80077,59e Avenue / 39e Rue,  45.495498, -73.985589,6,80077,0
80078,d'Oka / 48e Avenue,  45.505062, -73.987745,6,80078,0
80079,André-Soucy / 59e Avenue,  45.493428, -73.982741,6,80079,0
80080,André-Soucy / 61e Avenue,  45.492192, -73.984406,6,80080,0
80081,André-Soucy / René,  45.491008, -73.986135,6,80081,0
80082,Proulx / 63e Avenue,  45.487727, -73.981016,6,80082,0
80083,Proulx / 61e Avenue,  45.488645, -73.979644,6,80083,0
80084,Proulx / 59e Avenue,  45.489949, -73.978134,6,80084,0
80085,d'Oka / Croissant l'Écuyer,  45.510214, -73.980210,6,80085,0
80086,d'Oka / Principal,  45.512622, -73.976930,6,80086,0
80087,d'Oka / Paquin,  45.516838, -73.974163,6,80087,0
80088,d'Oka / Joseph,  45.519130, -73.972753,6,80088,0
80089,d'Oka / Montée de la Baie,  45.507945, -73.983503,6,80089,0
80090,13e Avenue / face au civique #435,  45.510506, -73.960270,6,80090,0
80091,Montée de la Baie / de la Chapelle,  45.498523, -73.969969,6,80091,0
80092,de la Chapelle / 37e Avenue,  45.499660, -73.967450,6,80092,0
80093,Joseph / Florence,  45.514312, -73.965894,6,80093,0
80094,de la Chapelle / 32e Avenue,  45.501282, -73.964521,6,80094,0
80095,de la Chapelle / 30e Avenue,  45.502028, -73.962177,6,80095,0
80096,de la Chapelle / 25e Avenue,  45.503025, -73.959633,6,80096,0
80097,de la Chapelle / 18e Avenue,  45.504663, -73.958092,6,80097,0
80098,de la Chapelle / 13e Avenue,  45.507130, -73.955824,6,80098,0
80099,13e Avenue / 38e Rue,  45.512309, -73.962848,6,80099,0
80100,Joseph / Florence,  45.514285, -73.965652,6,80100,0
80101,Joseph / devant le civique #83,  45.517750, -73.970549,6,80101,0
80102,Joseph / d'Oka,  45.519248, -73.972637,6,80102,0
80103,d'Oka / Émile-Brunet,  45.521097, -73.969659,6,80103,0
80104,d'Oka / 44e Avenue,  45.525443, -73.958464,6,80104,0
80105,d'Oka / 38e Avenue,  45.526535, -73.954413,6,80105,0
80106,d'Oka / 35e Avenue,  45.527243, -73.949872,6,80106,0
80107,d'Oka / 33e Avenue,  45.527539, -73.947648,6,80107,0
80108,d'Oka / de l'Église,  45.528236, -73.941776,6,80108,0
80109,d'Oka / 27e Avenue,  45.528447, -73.940193,6,80109,0
80110,d'Oka / 24e Avenue,  45.528742, -73.936895,6,80110,0
80111,d'Oka / 20e Avenue,  45.529288, -73.931558,6,80111,0
80112,d'Oka / 17e Avenue,  45.530251, -73.928534,6,80112,0
80113,d'Oka / 14e Avenue,  45.531195, -73.926540,6,80113,0
80114,d'Oka / 12e Avenue,  45.531838, -73.925200,6,80114,0
80115,d'Oka / 8e Avenue,  45.532763, -73.921906,6,80115,0
80116,d'Oka / 5e Avenue,  45.532654, -73.918548,6,80116,0
80117,d'Oka / 1re Avenue,  45.532045, -73.911911,6,80117,0
80118,d'Oka / 26e Avenue,  45.532801, -73.907532,5,80118,0
80119,d'Oka / 24e Avenue,  45.533385, -73.905587,5,80119,0
80120,de Chambéry / du Nivolet,  45.675795, -73.810430,6,80120,1
80121,Carmel / George-VI,  45.683494, -73.747592,5,80121,1
80122,Joseph / face au civique #177,  45.515961, -73.968089,6,80122,0
80123,Joseph / face au civique #83,  45.517714, -73.970640,6,80123,0
80124,du Lac / 8e avenue,  45.536907, -73.885823,5,80124,0
80126,d'Oka / 18e Avenue,  45.535725, -73.900078,5,80126,0
80127,d'Oka / 16e Avenue,  45.536777, -73.898384,5,80127,0
80128,de Rosemère / face au civique #249,  45.635927, -73.798256,5,80128,0
80130,8e Avenue / de la Chapelle,  45.541638, -73.891921,5,80130,0
80135,Féré / devant le civique #92,  45.553140, -73.894036,5,80135,0
80137,d'Oka / face au CLSC,  45.550638, -73.892619,5,80137,0
80139,des Promenades / devant le Shell,  45.542562, -73.920465,5,80139,0
80140,des Promenades / devant la Banque Nationale,  45.540716, -73.922301,5,80140,0
80141,des Promenades / des Bénédictines,  45.539563, -73.923688,6,80141,0
80142,des Promenades / des Pins,  45.538682, -73.926258,6,80142,0
80143,des Promenades / devant l'école Liberté-Jeunesse,  45.535652, -73.928292,6,80143,0
80144,des Promenades / de la Prucheraie,  45.532521, -73.932102,6,80144,0
80145,des Promenades / du Golf,  45.530068, -73.933312,6,80145,0
80146,20e Avenue / Montclair,  45.539343, -73.907989,5,80146,0
80147,20e Avenue / Guy,  45.540827, -73.909967,5,80147,0
80148,20e Avenue / Deux-Montagnes,  45.542351, -73.912218,5,80148,0
80149,des Promenades / de la Prucheraie,  45.532438, -73.932051,6,80149,0
80150,des Promenades / du Golf,  45.530720, -73.933311,6,80150,0
80151,des Promenades / des Tilleuls,  45.534233, -73.929933,6,80151,0
80152,des Promenades / des Mélèzes,  45.535503, -73.928324,6,80152,0
80153,des Promenades / devant le Métro,  45.537982, -73.925262,6,80153,0
80154,des Promenades / des Bénédictines,  45.539384, -73.923558,6,80154,0
80155,Deux-Montagnes / face à la gare Deux-Montagnes,  45.544689, -73.911716,5,80155,0
80158,Louise / 22e Avenue,  45.528537, -73.933720,6,80158,0
80159,Louise / 24e Avenue,  45.527460, -73.935724,6,80159,0
80160,Louise / 27e Avenue,  45.526477, -73.937391,6,80160,0
80161,Louise / 30e Avenue,  45.525017, -73.939520,6,80161,0
80162,Louise / 34e Avenue,  45.523630, -73.943023,6,80162,0
80163,34e Avenue / d'Oka,  45.527394, -73.948382,6,80163,0
80164,Laurette-Théorêt / Laurin,  45.532108, -73.949959,6,80164,0
80167,des Pins / 27e Avenue,  45.537240, -73.944672,6,80167,0
80168,des Pins / de la Rafale,  45.538597, -73.942587,6,80168,0
80169,des Pins / du Nordet,  45.539360, -73.941019,6,80169,0
80170,des Pins / de la Prucheraie,  45.540694, -73.935779,6,80170,0
80171,des Pins / des Promenades,  45.538570, -73.926889,6,80171,0
80172,des Pins / de la Prucheraie,  45.540827, -73.935505,6,80172,0
80173,des Pins / du Nordet,  45.539559, -73.940815,6,80173,0
80174,des Pins / de la Rafale,  45.538803, -73.942474,6,80174,0
80175,des Pins / 27e Avenue,  45.537460, -73.944489,6,80175,0
80176,des Pins / 29e Avenue,  45.536747, -73.945841,6,80176,0
80179,Laurette-Théorêt / d'Oka,  45.527827, -73.949105,6,80179,0
80180,34e Avenue / Louise,  45.523569, -73.943312,6,80180,0
80181,Louise / 30e Avenue,  45.524778, -73.939607,6,80181,0
80182,Louise / 27e Avenue,  45.526257, -73.937477,6,80182,0
80183,Louise / 24e Avenue,  45.527239, -73.935809,6,80183,0
80184,Louise / 22e Avenue,  45.528348, -73.933764,6,80184,0
80185,Louise / d'Oka,  45.529086, -73.932839,6,80185,0
80186,d'Oka / 3e Avenue,  45.546059, -73.891165,5,80186,0
80187,des Pins / de l'Orchidée,  45.536306, -73.948900,6,80187,1
80188,des Pins / de l'Orchidée,  45.536162, -73.949117,6,80188,1
80189,des Pins / du Chardonnay,  45.535944, -73.953273,6,80189,1
80190,d'Oka / 25e Avenue,  45.528774, -73.937836,6,80190,0
80191,8e Avenue / Gagnon,  45.545931, -73.898667,5,80191,0
80193,des Pins / des Chardonnay,  45.535726, -73.953661,6,80193,1
80194,d'Oka / 24e Avenue,  45.533572, -73.905458,5,80194,0
80195,d'Oka / devant le CLSC,  45.550645, -73.892750,5,80195,0
80196,d'Oka / 5e Avenue,  45.544241, -73.891826,5,80196,0
80197,d'Oka / du Grand-Moulin,  45.544040, -73.891736,5,80197,0
80198,20e Avenue / piste cyclable,  45.543053, -73.915474,5,80198,0
80199,des Promenades / 28e Avenue,  45.541237, -73.921278,5,80199,0
80200,20e Avenue / Deux-Montagnes,  45.542691, -73.912131,5,80200,0
80201,d'Oka / 3e Avenue,  45.545835, -73.891075,5,80201,0
80203,d'Oka / devant l'Église Holy Family,  45.540518, -73.893999,5,80203,1
80205,d'Oka / 3e Avenue,  45.532395, -73.914530,6,80205,0
80206,d'Oka / 5e Avenue,  45.532768, -73.918319,6,80206,0
80207,d'Oka / des Mélèzes,  45.532303, -73.924461,6,80207,0
80208,d'Oka / des Promenades,  45.529157, -73.934356,6,80208,0
80209,du Moulin / Saint-Eustache,  45.558388, -73.896830,5,80209,0
80210,Laurette-Théorêt / Sauvignon,  45.533546, -73.951899,6,80210,1
80211,d'Oka / 38e Avenue,  45.526607, -73.954326,6,80211,0
80212,d'Oka / devant le civique #3489,  45.521966, -73.967307,6,80212,0
80213,59e Avenue / André-Soucy,  45.493351, -73.982424,6,80213,0
80214,8e Avenue / de la Chapelle,  45.541670, -73.891692,5,80214,0
80215,des Promenades / des Pins,  45.537989, -73.925651,6,80215,0
80216,des Promenades / devant le Tim Hortons,  45.542166, -73.920271,5,80216,0
80217,André-Soucy / 43e Avenue,  45.498955, -73.974372,6,80217,0
80218,André-Soucy / Montée de la Baie,  45.500267, -73.972426,6,80218,0
80219,Laurette-Théorêt / Sauvignon,  45.533704, -73.951511,6,80219,1
80220,Joseph / devant le civique #177,  45.515993, -73.968013,6,80220,0
80221,d'Oka / Émile-Brunet,  45.521214, -73.969622,6,80221,0
80222,d'Oka / Joseph,  45.519384, -73.972721,6,80222,0
80223,des Pins / de la Salamandre,  45.541162, -73.930576,6,80223,0
80224,des Pins / des Bosquets,  45.539618, -73.928137,6,80224,0
80226,34e Avenue / Robert,  45.525037, -73.945366,6,80226,0
80227,des Pins / de la Salamandre,  45.541142, -73.930672,6,80227,0
80228,des Pins / des Bosquets,  45.539631, -73.928253,6,80228,0
80230,34e Avenue / Robert,  45.525012, -73.945005,6,80230,0
80231,34e Avenue / André-Monette,  45.526749, -73.947685,6,80231,0
80232,Gare Deux-Montagnes,  45.545457, -73.912706,5,80232,0
80233,Gare Deux-Montagnes,  45.545166, -73.912112,5,80233,1
80236,Laurette-Théorêt / Laurin,  45.532262, -73.950354,6,80236,1
80237,André-Soucy / 48e Avenue,  45.497193, -73.976960,6,80237,0
80238,André-Soucy / 52e Avenue,  45.495546, -73.979316,6,80238,0
80239,André-Soucy / 55e Avenue,  45.494225, -73.981241,6,80239,0
80240,des Pins / 29e Avenue,  45.536611, -73.946054,6,80240,1
80251,11e Avenue / Henri-Dunant,  45.542872, -73.898514,5,80251,1
80252,Henri-Dunant / 15e Avenue,  45.540784, -73.901967,5,80252,1
80253,Henri-Dunant / 20e Avenue,  45.537974, -73.906050,5,80253,1
80255,20e Avenue / d'Oka,  45.534745, -73.902041,5,80255,1
80259,d'Oka / devant le civique #3500,  45.521882, -73.967222,6,80259,0
80260,d'Oka / Lucien-Giguère,  45.522349, -73.965954,6,80260,0
80261,d'Oka / de l'Érablière,  45.524504, -73.960093,6,80261,0
80262,d'Oka / 40e Avenue,  45.526263, -73.955647,6,80262,0
80263,d'Oka / 37e Avenue,  45.526902, -73.952459,6,80263,0
80265,d'Oka / 30e Avenue,  45.528023, -73.943839,6,80265,0
80266,d'Oka / des Promenades,  45.528986, -73.934123,6,80266,0
80267,d'Oka / 3e Avenue,  45.532299, -73.914783,6,80267,0
80272,d'Oka / 14e Avenue,  45.538048, -73.896550,5,80272,0
80400,du Curé-Labelle / Lafontaine,  45.803865, -74.011985,7,80400,0
80401,du Curé-Labelle / 108e Avenue,  45.801574, -74.011343,7,80401,0
80402,du Curé-Labelle / 106e Avenue,  45.800052, -74.010936,7,80402,0
80403,du Curé-Labelle / 104e Avenue,  45.798279, -74.010421,7,80403,0
80404,Labelle / de Sainte-Paule,  45.793192, -74.008513,7,80404,0
80405,Labelle / Aubry,  45.791458, -74.007780,7,80405,0
80406,Labelle / devant l'église de Sainte-Paule,  45.789316, -74.006193,7,80406,0
80407,Labelle / Léopold-Nantel,  45.784302, -74.002687,7,80407,0
80408,Labelle / Place du Curé-Labelle,  45.778888, -74.003766,7,80408,0
80409,du Palais / Cégep de Saint-Jérôme,  45.778220, -74.000408,7,80409,0
80410,du Palais / Melançon,  45.777818, -73.997345,7,80410,0
80411,Melançon / devant le marché public de Saint-Jérôme,  45.776274, -73.997642,7,80411,0
80414,Saint-Georges / De Martigny Est,  45.780450, -74.001994,7,80414,0
80415,Saint-Georges / Ouimet,  45.782179, -74.001653,7,80415,0
80416,Saint-Georges / Léopold-Nantel,  45.784152, -74.001317,7,80416,0
80417,Saint-Georges / Filion,  45.787105, -74.002696,7,80417,0
80418,Saint-Georges / Scott,  45.788635, -74.004024,7,80418,0
80419,Saint-Georges / Vaillancourt,  45.789420, -74.004538,7,80419,0
80422,Saint-Georges / 100e Avenue,  45.795028, -74.005935,7,80422,0
80423,Saint-Georges / 103e Avenue,  45.796979, -74.006472,7,80423,0
80424,Saint-Georges / 104e Avenue,  45.798139, -74.006702,7,80424,0
80425,Saint-Georges / 106e Avenue,  45.800259, -74.007120,7,80425,0
80426,Saint-Georges / Lafontaine,  45.804104, -74.009795,7,80426,0
80435,des Laurentides / Saint-Antoine,  45.760646, -73.989374,7,80435,0
80436,des Laurentides / devant le civique #801,  45.759514, -73.987544,7,80436,0
80440,Melançon / face au marché public de Saint-Jérôme,  45.776239, -73.997300,7,80440,0
80441,Melançon / devant l'aréna Melançon,  45.779441, -73.996634,7,80441,0
80442,René-Gascon / Chapleau,  45.780406, -73.994282,7,80442,0
80443,René-Gascon / du Domaine,  45.780163, -73.992498,7,80443,0
80444,René-Gascon / Madeleine,  45.779717, -73.988824,7,80444,0
80445,Madeleine / Claude,  45.782434, -73.989665,7,80445,0
80446,Madeleine / Ouimet,  45.783985, -73.990325,7,80446,0
80447,des Prés / Ouimet,  45.784197, -73.988641,7,80447,0
80448,des Prés / Joseph-Fortier,  45.786524, -73.989195,7,80448,0
80449,des Prés / Filion,  45.787654, -73.990443,7,80449,0
80450,Filion / Melançon,  45.787587, -73.996103,7,80450,0
80451,Filion / Fournier,  45.787661, -73.999332,7,80451,0
80452,Fournier / Scott,  45.789041, -74.001169,7,80452,0
80457,Saint-Georges / Lajeunesse Est,  45.790263, -74.005019,7,80457,0
80458,Lajeunesse Est / Labelle,  45.790053, -74.006483,7,80458,0
80459,Lajeunesse Ouest / Laviolette,  45.789768, -74.010867,7,80459,0
80460,Lajeunesse Ouest / Grignon,  45.789835, -74.012554,7,80460,0
80461,Grignon / Lauzon,  45.791163, -74.013450,7,80461,0
80462,Monseigneur-Dubois / devant le Carrefour du Nord,  45.791161, -74.017703,7,80462,0
80463,Monseigneur-Dubois / Lajeunesse Ouest,  45.788848, -74.018886,7,80463,0
80464,Lajeunesse Ouest / de l'Industrie,  45.787250, -74.021051,7,80464,0
80474,Roland-Godard / devant le civique #603,  45.779453, -74.029455,7,80474,0
80476,Lajeunesse Ouest / de l'Industrie,  45.786832, -74.021635,7,80476,0
80478,Monseigneur-Dubois / Grignon,  45.792629, -74.014760,7,80478,0
80480,Grignon / Lajeunesse Ouest,  45.789844, -74.012996,7,80480,0
80481,Lajeunesse Ouest / Laviolette,  45.789569, -74.011103,7,80481,0
80482,Lajeunesse Est / Jeannette-Desrosiers,  45.789786, -74.008003,7,80482,0
80483,Lajeunesse Est / Saint-Georges,  45.790109, -74.005025,7,80483,0
80484,Saint-Georges / Aubry,  45.791699, -74.005086,7,80484,0
80485,Saint-Georges / de Sainte-Paule,  45.793381, -74.005551,7,80485,0
80488,Fournier / Scott,  45.789191, -74.001348,7,80488,0
80489,Filion / devant le civique #484,  45.787472, -73.999968,7,80489,0
80490,Filion / devant le civique #512,  45.787285, -73.995899,7,80490,0
80491,Filion / des Prés,  45.787508, -73.990937,7,80491,0
80492,des Prés / Wilfrid-Martin,  45.785920, -73.989094,7,80492,0
80493,des Prés / Ouimet,  45.784326, -73.988659,7,80493,0
80494,Ouimet / Madeleine,  45.784083, -73.990296,7,80494,0
80495,Madeleine / Claude,  45.782525, -73.989915,7,80495,0
80496,Madeleine / René-Gascon,  45.779867, -73.988771,7,80496,0
80497,René-Gascon / du Domaine,  45.780211, -73.992004,7,80497,0
80498,René-Gascon / Chapleau,  45.780455, -73.994095,7,80498,0
80499,Melançon / devant le civique #446,  45.779478, -73.996780,7,80499,0
80500,Melançon / du Palais,  45.777944, -73.997223,7,80500,0
80501,Gare Saint-Jérôme,  45.773353, -73.999593,7,80501,0
80502,Latour / O'Shea,  45.774561, -73.996219,7,80502,0
80503,Latour / du Domaine,  45.774832, -73.993839,7,80503,0
80504,Latour / 1er Boulevard,  45.775110, -73.990922,7,80504,0
80505,36e Avenue / 5e Rue,  45.774794, -73.986566,7,80505,0
80506,36e Avenue / 7e Rue,  45.775017, -73.984339,7,80506,0
80507,36e Avenue / 10e Rue,  45.775169, -73.981942,7,80507,0
80508,36e Avenue / 39e Avenue,  45.775142, -73.977703,7,80508,0
80509,36e Avenue / André-Prévost,  45.774436, -73.975414,7,80509,0
80510,36e Avenue / du Parc,  45.773599, -73.974134,7,80510,0
80511,du Parc / des Roitelets (Horizon Soleil),  45.771574, -73.976796,7,80511,0
80512,du Parc / des Mésanges,  45.770235, -73.978705,7,80512,0
80513,du Parc / 11e Rue,  45.769274, -73.982192,7,80513,0
80514,10e Rue / devant le civique #1037,  45.768833, -73.984242,7,80514,0
80515,10e Rue / 20e Avenue,  45.765229, -73.986918,7,80515,0
80516,Saint-Antoine / 20e Avenue,  45.762906, -73.983755,7,80516,0
80517,20e Avenue / 19e Rue,  45.761911, -73.982205,7,80517,0
80518,20e Avenue / 22e Rue,  45.760711, -73.980363,7,80518,0
80519,20e Avenue / des Bouleaux,  45.759765, -73.978953,7,80519,0
80520,20e Avenue / devant le civique #1110,  45.758787, -73.977405,7,80520,0
80521,20e Avenue / des Frênes,  45.757706, -73.975754,7,80521,0
80522,du Boisé / 20e Avenue,  45.755847, -73.972840,7,80522,0
80523,du Boisé / 24e Avenue,  45.757644, -73.970147,7,80523,0
80524,24e Avenue / 24e Rue,  45.760835, -73.974747,7,80524,0
80525,24e Avenue / 22e Rue,  45.762816, -73.977724,7,80525,0
80526,24e Avenue / Saint-Antoine,  45.763098, -73.978137,7,80526,0
80527,Saint-Antoine / 20e Avenue,  45.762874, -73.983314,7,80527,0
80528,Saint-Antoine / devant le Desjardins,  45.761956, -73.987264,7,80528,0
80529,Saint-Antoine / 14e Avenue,  45.761337, -73.988669,7,80529,0
80530,Galeries des Laurentides,  45.763158, -73.995188,7,80530,0
80531,Saint-Antoine / 14e Avenue,  45.761150, -73.988724,7,80531,0
80532,Saint-Antoine / 17e Avenue,  45.762057, -73.986758,7,80532,0
80533,20e Avenue / Saint-Antoine,  45.762736, -73.983564,7,80533,0
80534,Saint-Antoine / devant le civique #888,  45.762869, -73.980254,7,80534,0
80535,Saint-Antoine / 24e Avenue,  45.763032, -73.978332,7,80535,0
80536,24e Avenue / 24e Rue,  45.760983, -73.975220,7,80536,0
80537,24e Avenue / devant le civique #1200,  45.759153, -73.972363,7,80537,0
80538,24e Avenue / du Boisé,  45.757792, -73.970293,7,80538,0
80539,du Boisé / 20e Avenue,  45.755922, -73.972691,7,80539,0
80540,20e Avenue / 27e Rue,  45.757671, -73.975407,7,80540,0
80541,20e Avenue / des Bouleaux,  45.759732, -73.978654,7,80541,0
80542,20e Avenue / 22e Rue,  45.760641, -73.979995,7,80542,0
80543,20e Avenue / 19e Rue,  45.761869, -73.981882,7,80543,0
80544,20e Avenue / Saint-Antoine,  45.762735, -73.983203,7,80544,0
80545,20e Avenue / 10e Rue,  45.765117, -73.986720,7,80545,0
80546,10e Rue / 11e Rue,  45.767764, -73.984112,7,80546,0
80547,10e Rue / du Parc,  45.769166, -73.984105,7,80547,0
80548,du Parc / du Ruisseau,  45.769054, -73.982422,7,80548,0
80549,du Parc / des Pélicans,  45.769980, -73.978696,7,80549,0
80550,du Parc / des Roitelets,  45.771613, -73.976256,7,80550,0
80551,du Parc / 36e Avenue,  45.773424, -73.973932,7,80551,0
80552,36e Avenue / 39e Avenue (Cap Jeunesse),  45.775213, -73.977477,7,80552,0
80553,36e Avenue / 10e Rue,  45.775280, -73.981694,7,80553,0
80554,36e Avenue / 3e Boulevard,  45.775138, -73.984151,7,80554,0
80555,36e Avenue / 5e Rue,  45.774941, -73.986332,7,80555,0
80556,36e Avenue / 1er Boulevard,  45.774541, -73.990439,7,80556,0
80557,Latour / devant le civique #583,  45.775177, -73.991315,7,80557,0
80558,Latour / du Domaine,  45.774981, -73.993460,7,80558,0
80559,Latour / O'Shea,  45.774718, -73.996014,7,80559,0
80560,Melançon / du Palais,  45.777715, -73.997139,7,80560,0
80561,Melançon / Ouimet,  45.783226, -73.996179,7,80561,0
80562,Melançon / Léopold-Nantel,  45.784852, -73.996300,7,80562,0
80563,Melançon / Filion,  45.787270, -73.996359,7,80563,0
80564,Melançon / devant le civique #795,  45.789456, -73.994994,7,80564,0
80565,Melançon / Carré Lemer-St-Germain,  45.791304, -73.995058,7,80565,0
80566,Melançon / des Seigneurs-Dumont,  45.793211, -73.994580,7,80566,0
80567,Melançon / Bélanger,  45.795580, -73.995097,7,80567,0
80568,Schulz / Rodrigue,  45.797694, -73.995532,7,80568,0
80569,Schulz / Guay,  45.800062, -73.996096,7,80569,0
80570,Schulz / Marie-Claire,  45.802324, -73.996709,7,80570,0
80571,Schulz / Lafontaine,  45.805946, -73.997598,7,80571,0
80572,Schulz / 112e Avenue,  45.807033, -73.997802,7,80572,0
80573,112e Avenue / Isaac-Jogues,  45.806847, -74.000451,7,80573,0
80574,Isaac-Jogues / de la Rochelle,  45.808878, -74.001424,7,80574,0
80575,114e Avenue / devant le civique #207,  45.809726, -74.003753,7,80575,0
80576,114e Avenue / Patrick,  45.809487, -74.005545,7,80576,0
80577,114e Avenue / du Pavillon,  45.809097, -74.008947,7,80577,0
80578,du Pavillon / 113e Avenue,  45.807181, -74.008717,7,80578,0
80579,113e Avenue / Maurice,  45.806899, -74.010612,7,80579,0
80580,Maurice / 112e Avenue,  45.805928, -74.010159,7,80580,0
80581,Maurice / Lafontaine,  45.804596, -74.008888,7,80581,0
80582,Maurice / face à l'académie Lafontaine,  45.803076, -74.007484,7,80582,0
80583,Maurice / 106e Avenue,  45.800723, -74.005310,7,80583,0
80584,Maurice / Raphaël,  45.799300, -74.003949,7,80584,0
80585,Maurice / Rodrigue,  45.797110, -74.001922,7,80585,0
80586,Maurice / Bélanger,  45.795247, -74.000389,7,80586,0
80587,Bélanger / Fournier,  45.794933, -74.002927,7,80587,0
80588,Latour / De Villemure,  45.773961, -74.001316,7,80588,0
80589,Bélanger / Saint-Georges,  45.794602, -74.005852,7,80589,0
80590,Bélanger / du Curé-Labelle,  45.794273, -74.008448,7,80590,0
80591,Bélanger / Laviolette,  45.793617, -74.012264,7,80591,0
80592,Monseigneur-Dubois / Grignon,  45.792851, -74.014142,7,80592,0
80593,Carrefour du Nord,  45.792782, -74.017788,7,80593,0
80594,Monseigneur-Dubois / Laviolette,  45.793392, -74.012500,7,80594,0
80595,Bélanger / du Curé-Labelle,  45.793999, -74.008963,7,80595,0
80596,Bélanger / Saint-Georges,  45.794325, -74.006117,7,80596,0
80597,Bélanger / Fournier,  45.794680, -74.003175,7,80597,0
80598,Maurice / Francine,  45.795724, -74.000384,7,80598,0
80599,Maurice / Rodrigue,  45.797028, -74.001647,7,80599,0
80600,Maurice / Raphaël,  45.799222, -74.003739,7,80600,0
80601,Maurice / 106e Avenue,  45.800584, -74.004910,7,80601,0
80602,Maurice / devant l'académie Lafontaine,  45.803085, -74.007331,7,80602,0
80603,Maurice / Lafontaine,  45.804320, -74.008393,7,80603,0
80604,Maurice / 112e Avenue,  45.805772, -74.009789,7,80604,0
80605,Maurice / 113e Avenue,  45.806743, -74.010645,7,80605,0
80606,113e Avenue / du Pavillon,  45.807016, -74.008661,7,80606,0
80607,du Pavillon / 114e Avenue,  45.808936, -74.008978,7,80607,0
80608,114e Avenue / Patrick,  45.809363, -74.005723,7,80608,0
80609,114e Avenue / Isaac-Jogues,  45.809772, -74.003229,7,80609,0
80610,Isaac-Jogues / de la Rochelle,  45.808881, -74.001743,7,80610,0
80611,Isaac-Jogues / 112e Avenue,  45.806872, -74.000637,7,80611,0
80612,112e Avenue / Schulz,  45.807039, -73.998241,7,80612,0
80613,Schulz / Lafontaine,  45.806192, -73.997929,7,80613,0
80614,Schulz / Marie-Claire,  45.802454, -73.997017,7,80614,0
80615,Schulz / Guay,  45.800201, -73.996449,7,80615,0
80616,Schulz / Rodrigue,  45.797888, -73.995898,7,80616,0
80617,Schulz / Bélanger,  45.795792, -73.995450,7,80617,0
80618,Melançon / des Seigneurs-Dumont,  45.793371, -73.994781,7,80618,0
80619,Melançon / Place Nicolas,  45.791492, -73.995150,7,80619,0
80620,Melançon / Filion,  45.788940, -73.995300,7,80620,0
80621,Melançon / Léopold-Nantel,  45.785021, -73.996447,7,80621,0
80622,Melançon / Ouimet,  45.783421, -73.996393,7,80622,0
80624,Saint-Joseph / Labelle,  45.775004, -74.003835,7,80624,0
80625,Saint-Joseph / Saint-Louis,  45.774520, -74.006219,7,80625,0
80626,Saint-Joseph / Brière,  45.774099, -74.009697,7,80626,0
80627,Brière / Duvernay,  45.771908, -74.011699,7,80627,0
80631,Jean-Baptiste-Rolland O / devant le Bureau en Gros,  45.767634, -74.016910,7,80631,0
80632,Jean-Baptiste-Rolland Ouest / de Sainte-Marcelle,  45.771162, -74.019736,7,80632,0
80633,de Sainte-Marcelle / Castonguay,  45.771314, -74.017904,7,80633,0
80634,Castonguay / des Tilleuls,  45.775238, -74.017480,7,80634,0
80635,Castonguay / Pelletier,  45.776408, -74.015892,7,80635,0
80636,Castonguay / Gauthier,  45.776606, -74.013751,7,80636,0
80637,Gauthier / De Martigny Ouest,  45.779671, -74.012670,7,80637,0
80638,Gauthier / Paré,  45.781921, -74.013021,7,80638,0
80639,Paré / Monseigneur-Dubois,  45.781674, -74.016507,7,80639,0
80640,Monseigneur-Dubois / de Saint-Pierre,  45.783998, -74.018219,7,80640,0
80641,Monseigneur-Dubois / Genest,  45.786194, -74.018167,7,80641,0
80642,Lajeunesse Ouest / devant le civique #185,  45.788868, -74.017839,7,80642,0
80643,Lajeunesse Ouest / Place Raymond,  45.789222, -74.016617,7,80643,0
80644,Lajeunesse Ouest / Grignon,  45.789620, -74.012742,7,80644,0
80645,Monseigneur-Dubois / Bourassa,  45.787760, -74.018592,7,80645,0
80646,Monseigneur-Dubois / Calixa-Lavallée,  45.785950, -74.018317,7,80646,0
80647,Monseigneur-Dubois / devant le Brunet,  45.782980, -74.018056,7,80647,0
80648,Monseigneur-Dubois / Paré,  45.781545, -74.016925,7,80648,0
80649,Paré / Bellevue,  45.781615, -74.015674,7,80649,0
80650,Paré / Gauthier,  45.781856, -74.013349,7,80650,0
80651,Gauthier / De Martigny Ouest,  45.779899, -74.012943,7,80651,0
80652,Gauthier / Castonguay,  45.776785, -74.013683,7,80652,0
80653,Castonguay / Pelletier,  45.776549, -74.015659,7,80653,0
80654,Castonguay / des Tilleuls,  45.775410, -74.017621,7,80654,0
80655,Castonguay / de Sainte-Marcelle,  45.771491, -74.017858,7,80655,0
80656,de Sainte-Marcelle / Jean-Baptiste-Rolland Ouest,  45.771319, -74.019623,7,80656,0
80657,Juteau / face au Rona,  45.767289, -74.016988,7,80657,0
80658,Gauthier / devant le Costco,  45.765036, -74.017481,7,80658,0
80659,Brière / Blondin,  45.764461, -74.016715,7,80659,0
80660,Brière / Blanchard,  45.765232, -74.015967,7,80660,0
80661,Brière / Juteau,  45.766381, -74.015047,7,80661,0
80662,Brière / Danis,  45.768896, -74.013043,7,80662,0
80663,Brière / Duvernay,  45.771719, -74.011640,7,80663,0
80664,Brière / Saint-Joseph,  45.773955, -74.009901,7,80664,0
80665,Saint-Joseph / Saint-Faustin,  45.774350, -74.005527,7,80665,0
80671,de Rosemère / de la Grande-Côte,  45.634414, -73.794616,5,80671,0
80685,Jean-Baptiste-Rolland Est / devant le Quartier 50+,  45.771112, -73.995141,7,80685,0
80686,Jean-Baptiste-Rolland Est / 20e Avenue,  45.769576, -73.995018,7,80686,0
80689,J-B-Rolland E / du Dr-Charles-Léonard,  45.763104, -74.001027,7,80689,0
80690,Jean-Baptiste-Rolland Ouest / Louis-Jolliet,  45.761891, -74.010175,7,80690,0
80691,du Grand-Héron / devant le Wal-Mart,  45.760817, -74.016946,7,80691,0
80692,du Grand-Héron / Valmont,  45.759419, -74.018324,7,80692,0
80693,du Grand-Héron / Roland-Godard,  45.757476, -74.022588,7,80693,0
80694,Jean-Baptiste-Rolland Est / Saint-Jovite,  45.766392, -73.996734,7,80694,1
80695,Jean-Baptiste-Rolland Est / Saint-Jovite,  45.766161, -73.996574,7,80695,1
80696,5e rue / Galeries des Laurentides,  45.764141, -73.996249,7,80696,1
80697,5e rue / Galeries des Laurentides,  45.763841, -73.996199,7,80697,1
80698,5e Rue / Jean-Paul-Hogue,  45.762730, -73.998038,7,80698,1
80705,John-F.-Kennedy / devant le Super 8,  45.761591, -74.022833,7,80705,0
80706,Montée Saint-Nicolas / John-F.-Kennedy,  45.769309, -74.023871,7,80706,0
80707,Montée Saint-Nicolas / Roland-Godard,  45.768938, -74.027748,7,80707,0
80709,Carrefour du Nord,  45.792771, -74.017608,7,80709,1
80710,Carrefour du Nord,  45.792766, -74.017374,7,80710,1
80711,Carrefour du Nord,  45.792757, -74.017134,7,80711,1
80719,Saint-Joseph / Labelle,  45.774752, -74.004027,7,80719,0
80732,Montée Saint-Nicolas / John-F.-Kennedy,  45.769152, -74.023827,7,80732,0
80733,John-F.-Kennedy / Lamontagne,  45.760679, -74.023087,7,80733,0
80745,du Grand-Héron / Valmont,  45.758982, -74.018304,7,80745,0
80746,du Grand-Héron / face au Wal-Mart,  45.760653, -74.016736,7,80746,0
80747,Jean-Baptiste-Rolland Ouest / Louis-Jolliet,  45.761739, -74.010348,7,80747,0
80748,J-B-Rolland E / du Dr-Charles-Léonard,  45.763014, -74.001275,7,80748,0
80749,Jean-Baptiste-Rolland Ouest / Jean-Paul-Hogue,  45.763098, -73.998906,7,80749,0
80751,Jean-Baptiste-Rolland Est / 20e Avenue,  45.769412, -73.994802,7,80751,0
80795,Saint-Georges / Bélanger,  45.794249, -74.005747,7,80795,0
80796,du Palais / devant le civique #212,  45.778598, -74.002230,7,80796,0
80797,Place du Curé-Labelle / devant le civique #100,  45.777458, -74.003193,7,80797,0
80801,Monseigneur-Dubois / Bourassa,  45.787652, -74.018163,7,80801,0
80802,36e Avenue / André-Prévost,  45.774418, -73.975136,7,80802,0
80803,24e Avenue / devant le civique #1133,  45.759217, -73.972251,7,80803,0
80804,Fournier / des Pins,  45.791334, -74.002059,7,80804,0
80808,Saint-Georges / des Pins,  45.791024, -74.005064,7,80808,0
80813,Fournier / Aubry,  45.792103, -74.002270,7,80813,0
80814,Fournier / de Sainte-Paule,  45.793822, -74.002703,7,80814,0
80815,Fournier / Bélanger,  45.794707, -74.002965,7,80815,0
80816,Fournier / 101e Avenue,  45.796087, -74.003322,7,80816,0
80817,Fournier / 103e Avenue,  45.797547, -74.003749,7,80817,0
80818,103e Avenue / Saint-Georges,  45.796952, -74.006748,7,80818,0
80819,Saint-Georges / 101e Avenue,  45.795863, -74.006480,7,80819,0
80820,Saint-Georges / Bélanger,  45.794596, -74.006131,7,80820,0
80821,Saint-Georges / de Sainte-Paule,  45.793625, -74.005923,7,80821,0
80822,Saint-Georges / Aubry,  45.791922, -74.005445,7,80822,0
80828,103e Avenue / Fournier,  45.797543, -74.003948,7,80828,0
80829,Fournier / 101e Avenue,  45.796215, -74.003493,7,80829,0
80830,Fournier / Bélanger,  45.794945, -74.003190,7,80830,0
80831,Fournier / de Sainte-Paule,  45.793984, -74.002902,7,80831,0
80832,Fournier / Aubry,  45.792237, -74.002471,7,80832,0
80833,Fournier / des Pins,  45.791511, -74.002292,7,80833,0
80834,Roland-Godard / Lamontagne,  45.760392, -74.025369,7,80834,0
80836,Roland-Godard / Lajeunesse Ouest,  45.786499, -74.029022,7,80836,0
80843,Roland-Godard / De Martigny Ouest,  45.778630, -74.029752,7,80843,0
80844,Roland-Godard / Montée Saint-Nicolas,  45.769014, -74.028038,7,80844,0
80845,Lamontagne / Roland-Godard,  45.760527, -74.025380,7,80845,0
80846,Roland-Godard / du Grand-Héron,  45.757384, -74.022878,7,80846,0
80850,Grignon / Lauzon,  45.791293, -74.013922,7,80850,0
80853,Roland-Godard / Lajeunesse Ouest,  45.786388, -74.029323,7,80853,0
80854,Aréna St-Jérôme,  45.787997, -73.981906,7,80854,0
80855,Roland-Godard / Larry Ball,  45.772325, -74.028496,7,80855,0
80856,Roland-Godard / devant le civique #721,  45.783371, -74.029090,7,80856,0
80857,Roland-Godard / devant le civique #700,  45.783026, -74.029706,7,80857,0
80858,Roland-Godard / Larry Ball,  45.772574, -74.028734,7,80858,0
80859,Filion / devant le civique #655,  45.788798, -73.988483,7,80859,0
80860,Filion / devant le civique 660,  45.788472, -73.988240,7,80860,0
80861,de Rosemère / Westward,  45.638840, -73.805985,5,80861,0
80862,Florian / Dufferin,  45.635369, -73.803946,5,80862,0
80864,du Bas-de-Sainte-Thérèse / Paul-Bergeron,  45.652884, -73.794451,5,80864,0
80876,du Curé-Labelle / 101e Avenue,  45.795165, -74.009284,7,80876,0
80877,de Rosemère / de Normandie,  45.640413, -73.808375,5,80877,0
80878,Labelle / Filion,  45.786552, -74.004033,7,80878,0
80879,Labelle / De Martigny Est,  45.781108, -74.003338,7,80879,0
80880,Laviolette / Saint-Louis,  45.775324, -74.007763,7,80880,0
80881,Laviolette / Castonguay,  45.776841, -74.007041,7,80881,0
80882,Laviolette / Marchand,  45.778522, -74.006741,7,80882,0
80883,Laviolette / De Martigny Est,  45.780156, -74.006762,7,80883,0
80884,Laviolette / Bruno-Nantel,  45.780976, -74.006667,7,80884,0
80885,Laviolette / Lemay,  45.782566, -74.006551,7,80885,0
80886,Laviolette / Richard,  45.783797, -74.006798,7,80886,0
80887,Laviolette / Paul,  45.786380, -74.008266,7,80887,0
80888,Laviolette / Arthur-Nadon,  45.787448, -74.009259,7,80888,0
80889,Laviolette / Lajeunesse Ouest,  45.789549, -74.010889,7,80889,0
80890,Laviolette / Lauzon,  45.791452, -74.010867,7,80890,0
80891,Laviolette / Bélanger,  45.793439, -74.012234,7,80891,0
80892,Price / devant le IGA,  45.794775, -74.028675,7,80892,0
80893,Montée Sainte-Thérèse / Desjardins,  45.796966, -74.029344,7,80893,0
80894,Montée Sainte-Thérèse / Ducharme,  45.799956, -74.031402,7,80894,0
80895,Montée Sainte-Thérèse / Royale,  45.802748, -74.036522,7,80895,0
80896,Montée Sainte-Thérèse / de la Concorde,  45.804228, -74.038689,7,80896,0
80897,Montée Sainte-Thérèse / de la Promenade,  45.805521, -74.039931,7,80897,0
80898,Montée Sainte-Thérèse / de l'Étang,  45.806504, -74.040725,7,80898,0
80899,Montée Sainte-Thérèse / Jérobelle,  45.808908, -74.042813,7,80899,0
80900,Montée Sainte-Thérèse / Richer,  45.811396, -74.045812,7,80900,0
80901,Montée Sainte-Thérèse / Pierrette,  45.813043, -74.048119,7,80901,0
80902,des Quatre-Saisons / Trudeau,  45.813779, -74.049952,7,80902,0
80903,des Quatre-Saisons / Maisonneuve,  45.813346, -74.051214,7,80903,0
80904,Maisonneuve / Pierrette,  45.812524, -74.051114,7,80904,0
80905,Maisonneuve / Bouchard,  45.810979, -74.050171,7,80905,0
80906,Maisonneuve / Quintin,  45.809496, -74.049830,7,80906,0
80907,Maisonneuve / Jérobelle,  45.807650, -74.049485,7,80907,0
80908,Maisonneuve / du Marécage,  45.805764, -74.051081,7,80908,0
80909,Maisonneuve / de la Concorde,  45.802403, -74.048814,7,80909,0
80910,Maisonneuve / Beausite,  45.798758, -74.047988,7,80910,0
80911,Maisonneuve / de Saint-Émilion,  45.795983, -74.047281,7,80911,0
80912,Maisonneuve / de la Salette,  45.793086, -74.046643,7,80912,0
80913,de la Salette / face à l'école de la Source,  45.793031, -74.045535,7,80913,0
80914,de la Salette / des Manoirs,  45.793165, -74.043854,7,80914,0
80915,de la Salette / de Touraine,  45.794160, -74.041468,7,80915,0
80916,de la Salette / Champêtre,  45.794371, -74.038928,7,80916,0
80917,de la Salette / du Relais,  45.794503, -74.037069,7,80917,0
80918,de la Salette / Beaumont,  45.794950, -74.032209,7,80918,0
80919,de la Salette / Roland-Godard,  45.795846, -74.029358,7,80919,0
80920,Price / face au IGA,  45.794768, -74.028052,7,80920,0
80921,de l'Industrie / Lajeunesse Ouest,  45.787132, -74.021510,7,80921,0
80922,Laviolette / Lauzon,  45.791610, -74.011092,7,80922,0
80923,Laviolette / Lajeunesse Ouest,  45.789863, -74.011076,7,80923,0
80924,Laviolette / Arthur-Nadon,  45.787593, -74.009559,7,80924,0
80925,Laviolette / Paul,  45.786467, -74.008556,7,80925,0
80926,Laviolette / Richard,  45.783925, -74.007003,7,80926,0
80927,Laviolette / Lemay,  45.782751, -74.006749,7,80927,0
80928,Laviolette / De Martigny Ouest,  45.780386, -74.006917,7,80928,0
80929,Laviolette / Marchand,  45.778794, -74.006959,7,80929,0
80930,Laviolette / Castonguay,  45.777101, -74.007095,7,80930,0
80931,Laviolette / Saint-Louis,  45.775517, -74.007910,7,80931,0
80932,Laviolette / Saint-Joseph,  45.774403, -74.008058,7,80932,0
80933,Jean-Baptiste-Rolland O. / devant Bureau en Gros,  45.769298, -74.019717,7,80933,0
80934,Juteau / devant le Rona,  45.767440, -74.018717,7,80934,0
80940,Robinson / devant le civique #239,  45.560639, -73.930471,6,80940,0
80941,Allée du Golf / Robinson,  45.560301, -73.931037,6,80941,0
80942,Schulz / du Maçon,  45.800970, -73.996640,7,80942,1
80943,du Palais / Henri,  45.778095, -73.998224,7,80943,0
80944,Saint-Georges / Latour,  45.773619, -74.002361,7,80944,0
80945,de Rosemère / Lacas,  45.638194, -73.803354,5,80945,0
80946,Lacas / Highland,  45.637206, -73.803324,5,80946,0
80947,Pacific / Corona,  45.636942, -73.804346,5,80947,0
80948,Saint-François / de Gaulle,  45.680343, -73.793752,5,80948,0
80949,Florian / Chapleau,  45.633483, -73.801211,5,80949,0
80950,Latour / de Villemure,  45.773796, -74.001453,7,80950,1
80951,Schulz / du Maçon,  45.800849, -73.996321,7,80951,1
80952,de l'Industrie / Baron,  45.792769, -74.022063,7,80952,1
80953,de l'Industrie / Baron,  45.792629, -74.021722,7,80953,1
80954,Allée du Golf / face au 241,  45.558641, -73.930743,6,80954,1
80955,Allée du Golf / face au 246,  45.558820, -73.930617,6,80955,1
80956,Poirier / face au 212,  45.558259, -73.925780,6,80956,1
80957,Poirier / face au 209,  45.558100, -73.925710,6,80957,1
80974,des Laurentides / devant le Harvey's,  45.765165, -73.996862,7,80974,0
80975,des Laurentides / devant le civique #481,  45.763244, -73.993532,7,80975,0
80976,des Laurentides / devant le McDonald's,  45.764885, -73.996115,7,80976,0
80978,Saint-Georges / devant le civique #25,  45.768558, -74.000733,7,80978,0
80979,Saint-Georges / Saint-Jovite,  45.770307, -74.001477,7,80979,0
80980,Saint-Georges / Saint-Faustin,  45.770925, -74.001967,7,80980,1
80981,Saint-Georges / de Montigny,  45.768241, -74.001157,7,80981,1
80987,De Montigny / devant l'hôpital de Saint-Jérôme,  45.766494, -73.998799,7,80987,0
80994,Terminus Saint-Eustache Quai 3,  45.561470, -73.892971,5,80994,1
81000,Terminus Saint-Eustache,  45.561459, -73.892856,5,81000,0
81001,Arthur-Sauvé / devant le terminus Saint-Eustache,  45.561712, -73.893208,5,81001,1
81004,Arthur-Sauvé / Champagne,  45.561493, -73.895720,5,81004,0
81005,Féré / Corbo,  45.560551, -73.901904,5,81005,0
81006,Féré / Saint-Eustache,  45.559132, -73.900936,5,81006,0
81007,Féré / Boileau,  45.557278, -73.899488,5,81007,0
81008,Boileau / Louise,  45.557726, -73.901072,5,81008,0
81009,Boileau / Bigras,  45.557763, -73.907022,5,81009,0
81010,Boileau / Pie-XII,  45.558506, -73.914440,5,81010,0
81011,Deux-Montagnes / Blouin,  45.553500, -73.914838,5,81011,0
81012,Deux-Montagnes / Gagnier,  45.551190, -73.914060,5,81012,0
81013,Gare Deux-Montagnes,  45.544838, -73.912037,5,81013,0
81014,Deux-Montagnes / 20e Avenue,  45.542484, -73.912799,5,81014,0
81015,20e Avenue / devant l'Olympia,  45.543532, -73.917835,5,81015,0
81016,des Promenades / Industriel,  45.546997, -73.924035,6,81016,0
81017,Industriel / devant le Nova Bus,  45.550228, -73.921003,6,81017,0
81018,Industriel / devant le civique #690,  45.555438, -73.921406,6,81018,0
81019,Industriel / Poirier,  45.558926, -73.922831,6,81019,0
81020,Industriel / de la Rivière Sud,  45.562283, -73.925186,6,81020,0
81021,Industriel / Saint-Eustache,  45.566455, -73.924886,5,81021,0
81023,Pie-XII / Saint-Eustache,  45.560773, -73.912679,5,81023,0
81024,Pie-XII / Marcel,  45.561588, -73.911577,5,81024,0
81025,Pie-XII / Marcel,  45.562019, -73.911673,5,81025,0
81026,Marcel / Lucien,  45.563480, -73.913191,5,81026,0
81027,de l'Accueil / Beauséjour,  45.565857, -73.912602,5,81027,0
81028,de l'Accueil / devant le civique #401,  45.564252, -73.913086,5,81028,0
81029,Beauséjour / Perry,  45.565092, -73.911849,5,81029,0
81030,Beauséjour / Pie-XII,  45.563162, -73.910056,5,81030,0
81031,Sortie A-13 / de la Grande-Côte,  45.591061, -73.845698,5,81031,0
81033,Arthur-Sauvé / devant le civique #461,  45.566763, -73.907039,5,81033,0
81034,Arthur-Sauvé / Grignon,  45.571245, -73.911502,5,81034,0
81036,Saint-Eustache / du Parc,  45.565457, -73.921328,5,81036,0
81037,Hémond / Saint-Laurent,  45.563169, -73.900931,5,81037,0
81038,Hémond / Nadon,  45.564628, -73.902386,5,81038,0
81040,Hector-Lanthier / Moreau,  45.572149, -73.901244,5,81040,0
81041,Hector-Lanthier / Savard,  45.577606, -73.883742,5,81041,0
81042,Saint-Laurent / Champagne,  45.564450, -73.898605,5,81042,0
81043,Hémond / Saint-Laurent,  45.563284, -73.901024,5,81043,0
81044,Goyer / Saint-Laurent,  45.568289, -73.887199,5,81044,0
81045,Hémond / Lessard,  45.561556, -73.899457,5,81045,0
81046,Saint-Laurent / 12e Avenue,  45.569979, -73.883340,5,81046,0
81047,Saint-Laurent / Houde,  45.573281, -73.879490,5,81047,0
81048,Saint-Laurent / Gravel,  45.574385, -73.877106,5,81048,0
81049,Saint-Laurent / 25e Avenue,  45.575184, -73.875508,5,81049,0
81050,25e Avenue / Lamarche,  45.573538, -73.872981,5,81050,0
81051,25e Avenue / devant l'école Terre-des-Jeunes,  45.571695, -73.871123,5,81051,0
81053,Saint-Eustache / Yves,  45.562479, -73.915747,5,81053,0
81054,Saint-Eustache / Yves,  45.562584, -73.916223,5,81054,0
81055,Industriel / face au civique #780,  45.553784, -73.921103,6,81055,0
81056,Industriel / devant le civique #780,  45.553745, -73.920892,6,81056,0
81057,25e Avenue Nord / Dubois,  45.581419, -73.880482,5,81057,0
81060,Saint-Laurent / Hamel,  45.585730, -73.860446,5,81060,0
81061,Saint-Laurent / King,  45.584005, -73.861402,5,81061,0
81062,Saint-Laurent / Cousineau,  45.582568, -73.861592,5,81062,0
81063,Saint-Laurent / 45e Avenue,  45.581598, -73.862758,5,81063,0
81064,Saint-Laurent / Dominique-Miller,  45.579782, -73.868053,5,81064,0
81065,Saint-Laurent / 39e Avenue,  45.579947, -73.866144,5,81065,0
81066,Saint-Laurent / 31e Avenue,  45.577772, -73.871380,5,81066,0
81067,Saint-Laurent / 25e Avenue,  45.575629, -73.874725,5,81067,0
81068,25e Avenue / devant le Shell,  45.578287, -73.877492,5,81068,0
81069,Dubois / devant le civique #570,  45.580747, -73.882415,5,81069,0
81070,Dubois / devant le Rona,  45.576421, -73.889856,5,81070,0
81071,Dubois / Antoine-Séguin,  45.575734, -73.892233,5,81071,0
81072,Lavallée / Face au civique #501,  45.574028, -73.902200,5,81072,0
81073,Dubois / Charbonneau,  45.570905, -73.906767,5,81073,0
81074,Charbonneau / Grignon,  45.572578, -73.909918,5,81074,0
81076,Louis-Joseph-Papineau / des Patriotes,  45.569710, -73.924955,5,81076,0
81077,Louis-Joseph-Papineau / Girouard,  45.572136, -73.925679,5,81077,0
81078,Louis-Joseph-Papineau / Joseph-Dubé,  45.574344, -73.926374,5,81078,0
81079,Louis-Joseph-Papineau / Louis-Joseph-Rodrigue,  45.576846, -73.927247,5,81079,0
81080,Louis-Joseph-Rodrigue / Timothée-Kimber,  45.576427, -73.929783,5,81080,0
81081,Louis-Joseph-Rodrigue / Spénard,  45.576182, -73.931745,5,81081,0
81082,Louis-Joseph-Rodrigue / René-Lévesque,  45.575737, -73.935477,5,81082,0
81083,René-Lévesque / Léveillé,  45.577642, -73.936189,5,81083,0
81084,Léveillé / Spénard,  45.578090, -73.932625,5,81084,0
81085,Léveillé / Prud'homme,  45.578362, -73.930652,5,81085,0
81086,Prud'homme / des Plaines,  45.580425, -73.931007,5,81086,0
81087,Prud'homme / des Érables,  45.584742, -73.932121,5,81087,0
81088,des Érables / des Sapins,  45.583981, -73.927961,5,81088,0
81089,des Érables / Léveillé,  45.580642, -73.925401,5,81089,0
81090,Léveillé / Arthur-Sauvé,  45.581835, -73.922482,5,81090,0
81091,Arthur-Sauvé / devant le Wal-Mart,  45.578415, -73.918958,5,81091,0
81092,Arthur-Sauvé / Binette,  45.575417, -73.915952,5,81092,0
81093,Arthur-Sauvé / Industriel,  45.573871, -73.914421,5,81093,0
81097,Arthur-Sauvé / Industriel,  45.573893, -73.914155,5,81097,0
81099,Arthur-Sauvé / face au Wal-Mart,  45.578506, -73.918768,5,81099,0
81100,Léveillé / Arthur-Sauvé,  45.581783, -73.922907,5,81100,0
81101,Léveillé / des Érables,  45.580656, -73.925180,5,81101,0
81102,des Érables / des Sapins,  45.583979, -73.927571,5,81102,0
81103,Prud'homme / des Marronniers,  45.584186, -73.932140,5,81103,0
81104,Prud'homme / des Plaines,  45.580584, -73.931204,5,81104,0
81105,Prud'homme / Léveillé,  45.578537, -73.930618,5,81105,0
81106,Léveillé / René-Lévesque,  45.577774, -73.936182,5,81106,0
81107,Louis-Joseph-Rodrigue / René-Lévesque,  45.575626, -73.935315,5,81107,0
81108,Louis-Joseph-Rodrigue / Spénard,  45.576045, -73.931992,5,81108,0
81109,Louis-Joseph-Rodrigue / Louis-Joseph-Papineau,  45.576877, -73.927490,5,81109,0
81110,Louis-Joseph-Papineau / Joseph-Dubé,  45.574484, -73.926587,5,81110,0
81111,Louis-Joseph-Papineau / Girouard,  45.572292, -73.925972,5,81111,0
81112,Louis-Joseph-Papineau / des Patriotes,  45.569923, -73.925180,5,81112,0
81113,Louis-Joseph-Papineau / Industriel,  45.568156, -73.924259,5,81113,0
81114,Industriel / Saint-Eustache,  45.566688, -73.925057,5,81114,0
81115,Industriel / de la Rivière Sud,  45.562575, -73.925436,6,81115,0
81117,Industriel / devant le civique #699,  45.555519, -73.921577,6,81117,0
81118,Industriel / devant le civique #1001,  45.550269, -73.921153,6,81118,0
81119,Industriel / des Promenades,  45.547070, -73.924300,6,81119,0
81120,20e Avenue / face à l'Olympia,  45.543315, -73.917895,5,81120,0
81121,20e Avenue / piste cyclable,  45.542855, -73.915592,5,81121,0
81124,Deux-Montagnes / Gagnier,  45.551226, -73.913686,5,81124,0
81125,Deux-Montagnes / Blouin,  45.553486, -73.914474,5,81125,0
81126,Pie-XII / Boileau,  45.558409, -73.914556,5,81126,0
81127,Pie-XII / Saint-Eustache,  45.560568, -73.912380,5,81127,0
81128,Saint-Eustache / des Cèdres,  45.560144, -73.910568,5,81128,0
81129,Saint-Eustache / Picard,  45.559318, -73.906170,5,81129,0
81130,Saint-Eustache / des Sources,  45.559388, -73.904096,5,81130,0
81131,Saint-Eustache / Féré,  45.558949, -73.900824,5,81131,0
81132,Saint-Eustache / du Moulin,  45.558164, -73.896807,5,81132,0
81133,Saint-Eustache / Dorion,  45.558555, -73.892811,5,81133,0
81134,Saint-Eustache / Saint-Nicolas,  45.558188, -73.894849,5,81134,0
81135,Arthur-Sauvé / devant le Esso,  45.566671, -73.907336,5,81135,0
81136,Hémond / Pie-XII,  45.566160, -73.903953,5,81136,0
81137,Poirier / Allée du Golf,  45.557675, -73.929946,6,81137,0
81138,Allée du Golf / Poirier,  45.557766, -73.930500,6,81138,0
81139,Poirier / Industriel,  45.558953, -73.923159,6,81139,0
81141,Saint-Laurent / Houle,  45.566605, -73.893988,5,81141,0
81142,Saint-Laurent / Marcil,  45.567467, -73.892136,5,81142,0
81143,Saint-Laurent / des Mille-Îles,  45.568167, -73.890051,5,81143,0
81144,Saint-Laurent / Goyer,  45.568510, -73.886801,5,81144,0
81145,Goyer / Saint-Marc,  45.567265, -73.887040,5,81145,0
81149,Saint-Louis / Saint-Eustache,  45.557627, -73.889382,5,81149,0
81150,Saint-Louis / Chénier,  45.556415, -73.890591,5,81150,0
81151,Chénier / David-Lord,  45.554899, -73.890225,5,81151,0
81152,Chénier / devant le civique #46,  45.554272, -73.890894,5,81152,0
81153,Chénier / Labrie,  45.553318, -73.891688,5,81153,0
81154,Saint-Nicolas / De Bellefeuille,  45.560183, -73.890540,5,81154,0
81158,Féré / du Plateau,  45.554726, -73.896088,5,81158,0
81159,Féré / Latour,  45.556201, -73.898108,5,81159,0
81160,Féré / Saint-Eustache,  45.558876, -73.900536,5,81160,0
81161,Féré / Arthur-Sauvé,  45.561186, -73.901414,5,81161,0
81162,Arthur-Sauvé / Hémond,  45.560811, -73.898798,5,81162,0
81163,Arthur-Sauvé / Villeneuve,  45.561180, -73.896578,5,81163,0
81164,Arthur-Sauvé / face l'hôpital Saint-Eustache,  45.572052, -73.912228,5,81164,0
81165,Boileau / devant le civique #283,  45.558058, -73.902382,5,81165,0
81166,Arthur-Sauvé / Pie-XII,  45.565000, -73.905311,5,81166,0
81168,Féré / Dumont,  45.553667, -73.894731,5,81168,0
81170,Industriel / Arthur-Sauvé,  45.573137, -73.914701,5,81170,0
81172,Arthur-Sauvé / Laurier,  45.563057, -73.903364,5,81172,0
81173,Arthur-Sauvé / Laurier,  45.563078, -73.903788,5,81173,0
81174,Charbonneau / Dubois,  45.570820, -73.906944,5,81174,0
81179,Lavallée / des Dahlias,  45.576009, -73.903808,5,81179,0
81180,Lavallée / des Dahlias,  45.575917, -73.903448,5,81180,0
81182,du Parc / devant le civique #390,  45.566113, -73.918898,5,81182,0
81183,du Parc / Pépin,  45.567281, -73.913155,5,81183,0
81184,Pépin / Bibeau,  45.568734, -73.914829,5,81184,0
81185,Bibeau / Daoust,  45.570286, -73.916371,5,81185,0
81186,Bibeau / Daoust,  45.570298, -73.916533,5,81186,0
81187,Bibeau / Pépin,  45.568851, -73.915124,5,81187,0
81188,Pépin / du Parc,  45.567373, -73.913108,5,81188,0
81189,du Parc / devant le civique #385,  45.566129, -73.918632,5,81189,0
81190,du Parc / Saint-Eustache,  45.565667, -73.921922,5,81190,0
81191,Féré / Saint-Louis,  45.552740, -73.893429,5,81191,0
81192,Labrie / Féré,  45.551186, -73.891353,5,81192,0
81216,Féré / Légaré,  45.556864, -73.898988,5,81216,0
81217,Boileau / Judd,  45.557408, -73.909678,5,81217,0
81218,Deux-Montagnes / Montaigne,  45.556915, -73.915441,5,81218,0
81219,Boileau / Judd,  45.557325, -73.909704,5,81219,0
81220,Boileau / Bigras,  45.557587, -73.907184,5,81220,0
81221,Boileau / devant le civique #286,  45.557981, -73.902510,5,81221,0
81222,Boileau / Louise,  45.557671, -73.901099,5,81222,0
81223,Dubois / face au civique #520,  45.577626, -73.885669,5,81223,0
81224,Dubois / devant le civique #520,  45.577729, -73.885691,5,81224,0
81225,de la Grande-Côte / 18e Avenue,  45.567115, -73.874438,5,81225,0
81226,de la Grande-Côte / 31e Avenue,  45.572125, -73.867081,5,81226,0
81227,Saint-Eustache / du Docteur-Corriveau,  45.561808, -73.914070,5,81227,0
81228,Boileau / Féré,  45.556958, -73.899372,5,81228,0
81232,Industriel / devant le civique #14,  45.571968, -73.916548,5,81232,0
81233,Industriel / Arthur-Sauvé,  45.573248, -73.914096,5,81233,0
81234,Arthur-Sauvé / Binette,  45.575305, -73.915599,5,81234,0
81238,Grignon / Charbonneau,  45.572409, -73.910047,5,81238,0
81239,Dubois / face au civique #120,  45.571836, -73.904368,5,81239,0
81240,Dubois / face au civique #160,  45.572559, -73.902346,5,81240,0
81241,Lavallée / devant le civique #517,  45.574695, -73.902298,5,81241,0
81242,Lavallée / Binette,  45.576864, -73.904072,5,81242,0
81243,Binette / des Clématites,  45.578354, -73.899734,5,81243,0
81244,Binette / Antoine-Séguin,  45.579409, -73.896513,5,81244,0
81245,Antoine-Séguin / des Camélias,  45.578372, -73.895343,5,81245,0
81246,Antoine-Séguin / Allée de la Roseraie,  45.577349, -73.894291,5,81246,0
81247,Antoine-Séguin / Dubois,  45.575712, -73.892711,5,81247,0
81248,Dubois / face au Rona,  45.576454, -73.889603,5,81248,0
81249,Dubois / 25e Avenue,  45.581434, -73.880650,5,81249,0
81250,25e Avenue / devant le civique #480,  45.578285, -73.877605,5,81250,0
81251,25e Avenue / devant le civique #222,  45.577002, -73.876425,5,81251,0
81252,Saint-Laurent / Gravel,  45.574656, -73.876819,5,81252,0
81253,Saint-Laurent / Houde,  45.573498, -73.879242,5,81253,0
81254,Saint-Laurent / 12e Avenue,  45.570151, -73.883314,5,81254,0
81255,25e Avenue / Saint-Laurent,  45.575627, -73.875017,5,81255,0
81256,Saint-Marc / Scott,  45.565202, -73.890463,5,81256,0
81257,Saint-Marc / Houle,  45.564325, -73.891948,5,81257,0
81259,Saint-Marc / De Bellefeuille,  45.563348, -73.893580,5,81259,0
81260,Saint-Marc / Houle,  45.564176, -73.891994,5,81260,0
81261,Saint-Marc / Landry,  45.565245, -73.890120,5,81261,0
81262,Saint-Marc / Goyer,  45.567056, -73.886892,5,81262,0
81263,De Bellefeuille / Saint-Marc,  45.563132, -73.893298,5,81263,0
81264,25e Avenue / devant le civique #265,  45.576589, -73.875725,5,81264,0
81265,Antoine-Séguin / Allée de la Roseraie,  45.577276, -73.893850,5,81265,0
81266,Antoine-Séguin / des Camélias,  45.578390, -73.894999,5,81266,0
81267,Antoine-Séguin / Binette,  45.579571, -73.896090,5,81267,0
81268,Binette / des Clématites,  45.578427, -73.899622,5,81268,0
81269,Binette / Lavallée,  45.577028, -73.904013,5,81269,0
81270,Dubois / devant le civique #160,  45.572638, -73.902294,5,81270,0
81271,Dubois / devant le civique #120,  45.571843, -73.904607,5,81271,0
81276,Industriel / face au civique #14,  45.572126, -73.916713,5,81276,0
81279,Saint-Eustache / du Docteur-Corriveau,  45.561901, -73.914657,5,81279,0
81280,Pie-XII / Boileau,  45.558757, -73.914826,5,81280,0
81281,Prud'homme / Filiatrault,  45.581753, -73.931292,5,81281,0
81282,des Érables / des Tilleuls,  45.582006, -73.925748,5,81282,0
81283,Arthur-Sauvé / devant l'hôpital Saint-Eustache,  45.572118, -73.912720,5,81283,0
81284,Arthur-Sauvé / Pie-XII,  45.564401, -73.905134,5,81284,0
81285,Arthur-Sauvé / Féré,  45.561308, -73.901608,5,81285,0
81286,Arthur-Sauvé / Féré,  45.561424, -73.901209,5,81286,0
81287,des Érables / des Tilleuls,  45.581862, -73.925556,5,81287,0
81288,Prud'homme / Filiatrault,  45.581925, -73.931538,5,81288,0
81289,Léveillé / Spénard,  45.578246, -73.932350,5,81289,0
81290,Louis-Joseph-Rodrigue / Timothée-Kimber,  45.576305, -73.930073,5,81290,0
81292,Constantin / des Chênes,  45.568481, -73.905046,5,81292,0
81293,Constantin / Hector-Lanthier,  45.569965, -73.906481,5,81293,0
81294,Hector-Lanthier / devant le civique #113,  45.570976, -73.904590,5,81294,0
81295,Hector-Lanthier / devant le civique #137,  45.571693, -73.902826,5,81295,0
81296,Hector-Lanthier / devant le civique #207,  45.572759, -73.899219,5,81296,0
81297,Hector-Lanthier / 25e Avenue,  45.578503, -73.879574,5,81297,0
81298,Hector-Lanthier / Des Groseillers,  45.573289, -73.897606,5,81298,0
81299,Hector-Lanthier / devant le civique #249,  45.574306, -73.894169,5,81299,0
81300,Hector-Lanthier / Goyer,  45.574956, -73.892041,5,81300,0
81301,Hector-Lanthier / Touchette,  45.576580, -73.886712,5,81301,0
81303,Saint-Laurent / Joanne,  45.586691, -73.858653,5,81303,0
81304,Saint-Laurent / De Bellefeuille,  45.565591, -73.896135,5,81304,0
81305,De Bellefeuille / Lemay,  45.559758, -73.890153,5,81305,0
81306,De Bellefeuille / Saint-Louis,  45.558446, -73.888756,5,81306,0
81308,Saint-Laurent / 64e avenue,  45.589436, -73.853196,5,81308,1
81309,Saint-Laurent / 62e avenue,  45.587563, -73.856917,5,81309,1
81313,Industriel / Roy,  45.565171, -73.925595,6,81313,0
81314,Industriel / Roy,  45.564835, -73.925449,6,81314,0
81315,de Gaule / Saint-François,  45.680297, -73.793579,5,81315,0
81316,Saint-François / Gagnon,  45.683868, -73.788972,5,81316,0
81476,Springhill / Chestnut,  45.641838, -73.790023,5,81476,0
81477,Chestnut / Saint-Laurent,  45.644630, -73.786882,5,81477,0
81478,Beechwood / Paradis,  45.646816, -73.787137,5,81478,0
81479,de la Grande-Côte / Cedar,  45.635079, -73.794343,5,81479,0
81482,Alexandre / Perrault,  45.635981, -73.785480,5,81482,0
81484,Saint-Laurent / Chestnut,  45.644267, -73.787433,5,81484,0
81485,Chestnut / Springhill,  45.641921, -73.790110,5,81485,0
81487,Roland-Durand / de la Mésange (2),  45.643360, -73.806100,5,81487,0
81488,Roland-Durand / de la Mésange (1),  45.643142, -73.806157,5,81488,0
81489,Lesage / de la Grande-Côte,  45.646044, -73.780968,5,81489,0
81490,Blanchard / Napoléon,  45.632759, -73.838985,5,81490,0
81493,Saint-Louis / Viau,  45.644135, -73.847961,6,81493,0
81494,Saint-Louis / Viau,  45.644186, -73.847555,6,81494,0
81496,Blainville / Saint-Jean,  45.639343, -73.845681,6,81496,0
81499,de Serrieres / Broussey,  45.672314, -73.776309,5,81499,0
81600,de L'Érabliere / du Sablon,  45.680880, -73.774405,5,81600,0
81601,du Sablon face au numéro civique 171,  45.683360, -73.776684,5,81601,0
81602,de L'Érabliere / des Peupliers,  45.681227, -73.776301,5,81602,0
81603,de L'Érabliere / des Bois-Francs,  45.680163, -73.777568,5,81603,0
81604,des Bois-Francs / des Frenes,  45.679673, -73.777145,5,81604,0
81605,Des Laurentides / de l'Érablière,  45.679122, -73.778798,5,81605,0
81606,Provencher / Face au civique #91,  45.621960, -73.823685,5,81606,0
81830,Gare Rosemère Quai 1,  45.633635, -73.795140,5,81830,1
81831,Gare Rosemère Quai 2,  45.633485, -73.795155,5,81831,1
81832,Gare Rosemère Quai 5,  45.633659, -73.795324,5,81832,1
81833,Gare Rosemère Quai 3,  45.633470, -73.795348,5,81833,1
81835,Lefrançois / Lesage,  45.651107, -73.788296,5,81835,0
81836,École Rive-Nord,  45.670364, -73.759682,5,81836,0
81838,Ambroise-Filion / Hubert-Gratton,  45.654889, -73.803633,6,81838,0
81843,du Bas-de-Sainte-Thérèse / Dubreuil,  45.647269, -73.810689,6,81843,0
81845,Ambroise-Filion / Hubert-Gratton,  45.655088, -73.803676,6,81845,0
81846,de l'Alcazar / du Castillo,  45.662135, -73.800199,5,81846,0
81847,du Castillo / de l'Alcazar,  45.663946, -73.804856,5,81847,0
81849,de Lachalade / du Climont,  45.678244, -73.790923,5,81849,0
81850,de Lachalade / de Norroy,  45.676502, -73.791240,5,81850,0
81851,de Montbéliard / de Colombey (1),  45.666068, -73.785211,5,81851,0
81853,de Ronchamp / de Génicourt (2),  45.668088, -73.779076,5,81853,0
81855,de Ronchamp / d'Obernai (1),  45.670117, -73.781022,5,81855,0
81856,de Reims / de Sarrebourg,  45.672092, -73.784770,5,81856,0
81858,de Serrières / de Mailly,  45.675012, -73.777810,5,81858,0
81860,d'Aigremont/  d'Audun,  45.673220, -73.779617,5,81860,0
81862,de Ronchamp / d'Obernai (2),  45.670321, -73.780789,5,81862,0
81864,de Ronchamp / de Génicourt (1),  45.667880, -73.779053,5,81864,0
81867,de Montbéliard / de Colombey (2),  45.665846, -73.785376,5,81867,0
81868,de Gaulle / de Vignory,  45.670388, -73.789060,5,81868,0
81869,de Lachalade / de Bourbonne,  45.673701, -73.790771,5,81869,0
81870,de Lachalade / de Norroy,  45.676701, -73.791285,5,81870,0
81873,de Château-Salins / du Val-d'Ajol,  45.668152, -73.795977,5,81873,0
81874,de Château-Salins / d'Andelot,  45.669600, -73.791666,5,81874,0
81875,du Val-d'Ajol / de Château-Salins,  45.668071, -73.788717,5,81875,0
81877,de Château-Salins / d'Andelot,  45.669571, -73.791960,5,81877,0
81878,du Val-d'Ajol / de Château-Salins,  45.668013, -73.796191,5,81878,0
81879,de Fontenelle / de Magog (1),  45.658140, -73.832383,6,81879,0
81880,de Gatineau / de Matagami,  45.660656, -73.836057,6,81880,0
81884,Joyal / Rémi-Franc,  45.682504, -73.823048,6,81884,0
81885,Marie-Antoinette / Joyal,  45.681643, -73.824214,6,81885,0
81886,Anne-Marie / Marie-Antoinette,  45.678522, -73.819635,6,81886,0
81887,Paul-Albert / de Chambéry,  45.673881, -73.813356,6,81887,0
81889,de Fontainbleau / de Vincennes,  45.669481, -73.814345,6,81889,0
81891,de Fontainbleau / de Falaise,  45.671295, -73.818800,6,81891,0
81892,de Fontainbleau / de Lindoso,  45.670055, -73.822500,6,81892,0
81893,de Fontainbleau / de Vitré,  45.668419, -73.824866,5,81893,0
81894,Rémi-Franc / de la Côte-Saint-Louis,  45.685394, -73.827154,6,81894,0
81897,Paul-Albert / de Chambéry,  45.673914, -73.813665,6,81897,0
81898,Marie-Antoinette / Anne-Marie,  45.678644, -73.819770,6,81898,0
81899,Joyal / Marie-Antoinette,  45.681766, -73.824325,6,81899,0
81900,Joyal / Rémi-Franc,  45.682560, -73.823305,6,81900,0
81901,Rémi-Franc / de la Côte-Saint-Louis,  45.685168, -73.827124,6,81901,0
81904,d'Aubervilliers / de Compostelle,  45.679329, -73.740829,5,81904,0
81908,24e avenue / Savaria,  45.677131, -73.753885,5,81908,0
81910,Carmelle / Omer-Roy,  45.675668, -73.758890,5,81910,0
81911,Joseph-Germain / Carmelle,  45.672174, -73.757340,5,81911,0
81912,25e avenue / Joseph-Germain,  45.675018, -73.754244,5,81912,0
81913,Adolphe-Chapleau / 36e avenue,  45.667318, -73.757295,5,81913,0
81914,de Chambord / Prince-Val,  45.663599, -73.769750,5,81914,0
81915,d'Orléans / de Chambord,  45.664499, -73.770791,5,81915,0
81916,de Nancy / de Saverne,  45.661410, -73.776891,5,81916,0
81917,Carmel / des Cueilleurs,  45.681476, -73.751892,5,81917,0
81918,Nancy / de la Meuse,  45.661215, -73.777473,5,81918,0
81919,Adolphe-Chapleau / 36e avenue,  45.667584, -73.757235,5,81919,0
81920,Joseph-Germain / 25e avenue,  45.674877, -73.754658,5,81920,0
81921,Carmelle / Joseph-Germain,  45.672152, -73.757537,5,81921,0
81922,Carmelle / Omer-Roy,  45.675850, -73.759053,5,81922,0
81924,24e avenue / Savaria,  45.677086, -73.753513,5,81924,0
81926,Côte de Terrebonne / George-VI,  45.676820, -73.743968,5,81926,0
81928,d'Aubervilliers / de Compostelle,  45.679455, -73.741085,5,81928,0
81930,Carmel / George-VI,  45.682760, -73.747834,5,81930,0
81931,Carmel / des Cueilleurs,  45.681217, -73.752019,5,81931,0
81933,Rose-Alma / de la Grande-Côte,  45.638094, -73.789435,5,81933,0
81934,Perrault / Alexandre,  45.636062, -73.785309,5,81934,0
81938,Roland-Durand / de la Roseraie (2),  45.649607, -73.794963,5,81938,0
81939,Roland-Durand / du Colibri (2),  45.648247, -73.799114,5,81939,0
81942,Roland-Durand / du Colibri (1),  45.648460, -73.799045,5,81942,0
81943,Roland-Durand / de la Roseraie (1),  45.649784, -73.794779,5,81943,0
81947,de la Grande-Côte / Saint-Laurent,  45.642676, -73.783967,5,81947,0
81948,de la Grande-Côte / Charbonneau,  45.639944, -73.786936,5,81948,0
81949,Perrault / Alexandre,  45.635856, -73.785361,5,81949,0
81952,Blainville / Louis-Hébert,  45.639638, -73.852678,6,81952,0
81956,de la Grande-Côte / Hector,  45.637111, -73.791503,5,81956,0
81957,de la Grande-Côte / Hector,  45.636900, -73.791590,5,81957,0
81958,de la Grande-Côte / Philippe,  45.634715, -73.794314,5,81958,0
81964,Blainville / Louis-Hébert,  45.639517, -73.852899,6,81964,0
81965,Mayer / Saint-Charles,  45.642382, -73.855335,6,81965,0
81966,de Saverne / de Louvigny,  45.662453, -73.778385,5,81966,0
81967,de Saverne / de Bar-le-Duc (1),  45.664483, -73.778398,5,81967,0
81968,de Saverne / de Montsec,  45.665762, -73.775502,5,81968,0
81969,de Saverne / de Morhange,  45.664066, -73.773555,5,81969,0
81971,d'Orléans / de Belfort (2),  45.665312, -73.769931,5,81971,0
81972,d'Orléans / de Belfort (1),  45.667264, -73.766295,5,81972,0
81973,Prince-Val / de Couvonges,  45.664191, -73.765189,5,81973,0
81974,de Chambord / de Chatenay,  45.660693, -73.769556,5,81974,0
81975,de Chambord / d'Épinal,  45.658052, -73.773584,5,81975,0
81976,de Saverne / de Nancy,  45.661569, -73.777074,5,81976,0
81977,de Chambord / de Gaulle,  45.658008, -73.774239,5,81977,0
81978,de Chambord / de Marsal (1),  45.658959, -73.772598,5,81978,0
81979,de Chambord / de Chatenay,  45.660922, -73.769734,5,81979,0
81980,Prince-Val / de Chambord,  45.663606, -73.769400,5,81980,0
81981,d'Orléans / de Couvonges,  45.664407, -73.765214,5,81981,0
81982,d'Orléans / de Belfort (2),  45.667063, -73.766527,5,81982,0
81983,d'Orléans / de Belfort (1),  45.665065, -73.769927,5,81983,0
81985,de Saverne / de Morhange,  45.664169, -73.773728,5,81985,0
81986,de Saverne / de Montsec,  45.665638, -73.775697,5,81986,0
81987,de Saverne / Bar-le-Duc (2),  45.664291, -73.778469,5,81987,0
81988,de Saverne / Louvigny,  45.662411, -73.778093,5,81988,0
81989,de Rambervillers / de Gaulle,  45.679511, -73.792394,5,81989,0
81993,des Pommetiers / Gagnon,  45.674179, -73.773930,5,81993,0
81994,des Cerisiers / du Belvédère,  45.675229, -73.773854,5,81994,0
81995,de la Haute-Rive / des Sorbiers,  45.677196, -73.774711,5,81995,0
81996,de la Haute-Rive / de la Promenade,  45.677750, -73.772065,5,81996,0
81997,du Belvedère / des Cerisiers,  45.675102, -73.773745,5,81997,0
81998,des Sorbiers / de la Haute-Rive,  45.677076, -73.774614,5,81998,0
81999,de la Haute-Rive / de la Promenade,  45.677595, -73.772144,5,81999,0
82000,George-VI / Côte de Terrebonne,  45.677095, -73.744415,5,82000,0
82001,Côte de Terrebonne / Fidèle,  45.676174, -73.745226,5,82001,0
82002,Adolphe-Chapleau / 24e Avenue,  45.673591, -73.750016,5,82002,0
82003,Adolphe-Chapleau / 25e Avenue,  45.672981, -73.751135,5,82003,0
82004,Adolphe-Chapleau / 27e Avenue,  45.672264, -73.753043,5,82004,0
82005,Adolphe-Chapleau / 31e Avenue,  45.670151, -73.754854,5,82005,0
82006,Adolphe-Chapleau / 33e Avenue,  45.669004, -73.755790,5,82006,0
82007,Adolphe-Chapleau / 38e Avenue,  45.666209, -73.758464,5,82007,0
82008,du Souvenir / Montée Gagnon,  45.665950, -73.761373,5,82008,0
82009,Adolphe-Chapleau / 43e Avenue,  45.664346, -73.760800,5,82009,0
82010,Adolphe-Chapleau / 47e Avenue,  45.661850, -73.762915,5,82010,0
82011,Adolphe-Chapleau / 51e Avenue,  45.660647, -73.765322,5,82011,0
82012,Adolphe-Chapleau / 56e Avenue,  45.657669, -73.769121,5,82012,0
82013,Adolphe-Chapleau / De Gaulle,  45.656123, -73.771179,5,82013,0
82014,de la Grande-Côte / Roland-Durand,  45.651090, -73.775847,5,82014,0
82015,de la Grande-Côte / des Genêts,  45.648780, -73.778649,5,82015,0
82016,de la Grande-Côte / Montée Lesage,  45.645941, -73.781015,5,82016,0
82017,de la Grande-Côte / Labonté,  45.643820, -73.783052,5,82017,0
82018,de la Grande-Côte / Grenier,  45.642317, -73.784504,5,82018,0
82019,de la Grande-Côte / Rosedale,  45.641425, -73.785412,5,82019,0
82020,de la Grande-Côte / Springhill,  45.640038, -73.787318,5,82020,0
82021,de la Grande-Côte / Rose-Alma,  45.638333, -73.789450,5,82021,0
82022,de la Grande-Côte / devant la bibliothèque Hemens,  45.637018, -73.792125,5,82022,0
82023,de la Grande-Côte / Cedar,  45.634704, -73.794665,5,82023,0
82024,de la Grande-Côte / devant la gare Rosemère,  45.633570, -73.794636,5,82024,0
82025,de la Grande-Côte / Corona,  45.631280, -73.795713,5,82025,0
82026,de la Grande-Côte / Remembrance,  45.629792, -73.797028,5,82026,0
82027,de la Grande-Côte / devant l'école Val-des-Ormes,  45.628279, -73.798861,5,82027,0
82028,de la Grande-Côte / Hertel,  45.625303, -73.801856,5,82028,0
82029,Labelle / de la Grande-Côte,  45.624640, -73.803237,5,82029,0
82030,Labelle / Bourbonnière,  45.628079, -73.808679,5,82030,0
82031,Labelle / Bouthillier,  45.631477, -73.813622,5,82031,0
82032,Labelle / face à la Place Rosemère,  45.632732, -73.816032,5,82032,0
82033,Desjardins Est / Vaudry (1),  45.634784, -73.822723,5,82033,0
82034,Desjardins Est / Saint-Jacques Est,  45.635060, -73.826086,5,82034,0
82035,Gare Sainte-Thérèse,  45.635784, -73.834747,5,82035,0
82036,Desjardins Est / Saint-Jacques Est,  45.634821, -73.826292,5,82036,0
82037,Desjardins Est / Vaudry (2),  45.634429, -73.823082,5,82037,0
82038,Labelle / devant la Place Rosemère,  45.632109, -73.815670,5,82038,0
82039,Labelle / devant les Galeries des Mille-îles,  45.630427, -73.812537,5,82039,0
82040,Labelle / du Parc,  45.628257, -73.809355,5,82040,0
82041,Labelle / devant le Jean Coutu,  45.625354, -73.804753,5,82041,0
82042,de la Grande-Côte / Hertel,  45.624885, -73.801878,5,82042,0
82043,de la Grande-Côte / face à l'école Val-des-Ormes,  45.628226, -73.798641,5,82043,0
82044,de la Grande-Côte / Remembrance,  45.629623, -73.797037,5,82044,0
82045,de la Grande-Côte / Corona,  45.630922, -73.795717,5,82045,0
82046,de la Grande-Côte / face à la gare Rosemère,  45.633792, -73.794454,5,82046,0
82047,de la Grande-Côte / Maria,  45.635389, -73.793851,5,82047,0
82048,de la Grande-Côte / face à la bibliothèque Hemens,  45.636634, -73.791953,5,82048,0
82049,de la Grande-Côte / Rose-Alma,  45.637957, -73.789598,5,82049,0
82050,de la Grande-Côte / Charbonneau,  45.639531, -73.787480,5,82050,0
82051,de la Grande-Côte / Rosedale,  45.641121, -73.785438,5,82051,0
82052,de la Grande-Côte / Grenier,  45.642102, -73.784463,5,82052,0
82053,de la Grande-Côte / Labonté,  45.643444, -73.783105,5,82053,0
82054,de la Grande-Côte / Maisonneuve,  45.644839, -73.781802,5,82054,0
82055,de la Grande-Côte / Cadieux,  45.645829, -73.780800,5,82055,0
82056,de la Grande-Côte / des Genêts,  45.648343, -73.778633,5,82056,0
82057,de la Grande-Côte / Roland-Durand,  45.650980, -73.775571,5,82057,0
82058,de la Grande-Côte / De Gaulle,  45.655496, -73.771401,5,82058,0
82059,Adolphe-Chapleau / 56e Avenue,  45.657529, -73.769049,5,82059,0
82060,Adolphe-Chapleau / 51e Avenue,  45.660402, -73.765507,5,82060,0
82061,Adolphe-Chapleau / 47e Avenue,  45.661689, -73.762934,5,82061,0
82062,Adolphe-Chapleau / 43e Avenue,  45.663983, -73.760847,5,82062,0
82063,Montée Gagnon / du Souvenir,  45.665600, -73.761453,5,82063,0
82064,Adolphe-Chapleau / 38e Avenue,  45.666679, -73.758296,5,82064,0
82065,Adolphe-Chapleau / 33e Avenue,  45.668512, -73.755964,5,82065,0
82066,Adolphe-Chapleau / 31e Avenue,  45.669743, -73.754837,5,82066,0
82067,Adolphe-Chapleau / 27e Avenue,  45.671979, -73.753234,5,82067,0
82068,Adolphe-Chapleau / 25e Avenue,  45.672550, -73.751395,5,82068,0
82069,Adolphe-Chapleau / 24e Avenue,  45.673205, -73.750168,5,82069,0
82071,Côte de Terrebonne / George-VI,  45.676626, -73.744056,5,82071,0
82072,Turgeon / Dubois,  45.637166, -73.838537,5,82072,0
82073,Turgeon / Forget,  45.638200, -73.839861,5,82073,0
82074,Turgeon / Roux,  45.638815, -73.840789,5,82074,0
82075,Saint-Louis / du Chanoine-Lionel-Groulx,  45.640181, -73.841657,5,82075,0
82076,Collège Lionel-Groulx,  45.641235, -73.843287,5,82076,0
82077,Saint-Louis / Limoges,  45.642997, -73.845789,5,82077,0
82078,Ducharme / face au poste de police,  45.644255, -73.845105,5,82078,0
82079,Ducharme / Duquet,  45.645267, -73.843503,5,82079,0
82080,Ducharme / du Curé-Labelle,  45.647395, -73.840206,5,82080,0
82081,du Curé-Labelle / 17e Avenue Est,  45.650731, -73.844598,6,82081,0
82082,de la Côte-Saint-Louis Est / Perreault,  45.652831, -73.845251,6,82082,0
82083,de la Côte-Saint-Louis Est / de la Briquade,  45.653505, -73.844978,6,82083,0
82084,de la Côte-Saint-Louis Est / des Bolets,  45.656674, -73.844112,6,82084,0
82085,de la Côte-Saint-Louis Est / Paul-Albert,  45.684076, -73.829541,6,82085,0
82086,Montée Gagnon / de la Côte-Saint-Louis Est,  45.697253, -73.808735,6,82086,0
82087,Montée Gagnon / Saint-Roch,  45.699543, -73.812389,6,82087,0
82088,Montée Gagnon / Rang Lepage,  45.732113, -73.822230,6,82088,0
82089,Montée Gagnon / face à l'Établissement Archambault,  45.743235, -73.825635,6,82089,0
82090,Montée Gagnon / Isabelle,  45.745433, -73.826347,6,82090,0
82091,Sainte-Anne / des Entreprises,  45.748990, -73.825416,6,82091,0
82092,Collège Lionel-Groulx,  45.641130, -73.843137,5,82092,1
82093,Sainte-Anne / Delorme,  45.753392, -73.821054,6,82093,0
82094,Sainte-Anne / 1re Avenue,  45.755313, -73.819108,6,82094,0
82095,Sainte-Anne / Therrien,  45.758497, -73.815982,6,82095,0
82096,Sainte-Anne / 3e Avenue,  45.760651, -73.813809,6,82096,0
82099,des Cèdres / Sainte-Anne,  45.766697, -73.814884,6,82099,0
82101,Sainte-Anne / 3e Avenue,  45.761064, -73.813829,6,82101,0
82102,Sainte-Anne / 2e Avenue,  45.759696, -73.815058,6,82102,0
82103,Sainte-Anne / Therrien,  45.758783, -73.815976,6,82103,0
82104,Sainte-Anne / 1re Avenue,  45.755569, -73.819160,6,82104,0
82105,Sainte-Anne / Delorme,  45.753427, -73.821477,6,82105,0
82107,Montée Gagnon / Trépanier,  45.747611, -73.826943,6,82107,0
82108,Montée Gagnon / Établissement Archambault,  45.743482, -73.826053,6,82108,0
82109,Montée Gagnon / Rang Lepage,  45.732486, -73.822698,6,82109,0
82110,Montée Gagnon / Lauzon,  45.699625, -73.812920,6,82110,0
82111,Montée Gagnon / de la Côte-Saint-Louis Est,  45.697056, -73.808924,6,82111,0
82112,de la Côte-Saint-Louis Est / Paul-Albert,  45.684325, -73.829420,6,82112,0
82113,de la Côte-Saint-Louis Est / des Bolets,  45.656847, -73.844301,6,82113,0
82114,de la Côte-Saint-Louis Est / de la Briquade,  45.653811, -73.845178,6,82114,0
82115,de la Côte-Saint-Louis Est / Perreault,  45.653196, -73.845498,6,82115,0
82116,du Curé-Labelle / 17e Avenue Ouest,  45.650741, -73.845085,6,82116,0
82117,Ducharme / devant le Tim Hortons,  45.647324, -73.841028,5,82117,0
82118,Ducharme / Duquet,  45.645759, -73.843454,5,82118,0
82119,Ducharme / devant le poste de police,  45.644398, -73.845463,5,82119,0
82120,Saint-Louis / Limoges,  45.642611, -73.845651,5,82120,0
82121,de l'Église / Devant la pharmacie,  45.640259, -73.844238,5,82121,0
82122,Saint-Joseph / Blainville Ouest,  45.639548, -73.843895,5,82122,0
82123,Saint-Joseph / Roux,  45.638027, -73.842256,5,82123,0
82124,Saint-Joseph / Bélanger,  45.637108, -73.841018,5,82124,0
82125,Dubois / Turgeon,  45.637148, -73.839051,5,82125,0
82126,Métro Cartier Quai 12,  45.559526, -73.682137,3,82126,0
82127,Station Montmorency,  45.558399, -73.720666,3,82127,0
82128,Montée Gagnon / du Souvenir,  45.669165, -73.766629,5,82128,0
82130,Montée Gagnon / Adrien-Éthier Nord,  45.674557, -73.774434,5,82130,0
82131,Montée Gagnon / des Pommetiers,  45.674110, -73.774226,5,82131,0
82132,Montée Gagnon / face au civique #328,  45.676066, -73.776834,5,82132,0
82133,Montée Gagnon / de l'Érablière,  45.678381, -73.780312,5,82133,0
82134,Montée Gagnon / de Vignory,  45.679186, -73.781525,5,82134,0
82135,Montée Gagnon / Rang Saint-François,  45.683959, -73.788625,5,82135,0
82138,Sainte-Anne / des Entreprises,  45.748637, -73.826090,6,82138,0
82139,Montée Gagnon / Rang Saint-François,  45.684032, -73.789184,5,82139,0
82141,Montée Gagnon / de Martigny,  45.677989, -73.780234,5,82141,0
82142,Montée Gagnon / devant le civique #328,  45.676051, -73.777171,5,82142,0
82143,Montée Gagnon / des Pommetiers,  45.675595, -73.776105,5,82143,0
82144,Montée Gagnon / Adrien-Éthier Sud,  45.672217, -73.771296,5,82144,0
82145,Montée Gagnon / du Souvenir,  45.669195, -73.767111,5,82145,0
82165,du Plein-Air / du Rallye,  45.652513, -73.884678,7,82165,0
82166,du Plein-Air / du Biathlon,  45.651739, -73.880421,7,82166,0
82167,du Plein-Air / de l'Escrime,  45.651260, -73.879728,7,82167,0
82168,du Plein-Air / de la Luge,  45.650338, -73.878361,7,82168,0
82169,du Plein-Air / des Sports,  45.649474, -73.876997,7,82169,0
82170,du Plein-Air / du Cyclisme,  45.648557, -73.873804,7,82170,0
82171,du Plein-Air / Place de l'Aviron,  45.647567, -73.871754,7,82171,0
82172,du Plein-Air / Place du Canoë,  45.646749, -73.870601,7,82172,0
82173,du Plein-Air / devant le Pétro-Canada,  45.645466, -73.868673,7,82173,0
82174,Saint-Charles / Sicard,  45.643848, -73.860643,6,82174,0
82176,Saint-Charles / Chapleau,  45.641836, -73.852674,6,82176,0
82177,Saint-Charles / devant le civique #69,  45.641141, -73.849404,6,82177,0
82178,Saint-Charles / Morris,  45.640901, -73.845356,6,82178,0
82179,Saint-Charles / Saint-Stanislas,  45.640915, -73.847037,6,82179,0
82180,Saint-Charles / Chapleau,  45.641978, -73.852086,6,82180,0
82181,Saint-Charles / Mayer,  45.642383, -73.854940,6,82181,0
82182,Saint-Charles / de la Côte-Saint-Louis Ouest,  45.643754, -73.859408,6,82182,0
82183,Saint-Charles / du Côteau,  45.644994, -73.863458,6,82183,0
82184,du Plein-Air / face au Pétro-Canada,  45.645462, -73.868710,7,82184,0
82185,du Plein-Air / Place du Canoë,  45.646704, -73.870307,7,82185,0
82186,du Plein-Air / Place de l'Aviron,  45.647568, -73.871691,7,82186,0
82187,du Plein-Air / du Cyclisme,  45.648589, -73.873641,7,82187,0
82188,du Plein-Air / des Sports,  45.649483, -73.876741,7,82188,0
82189,du Plein-Air / de la Luge,  45.650328, -73.878107,7,82189,0
82190,du Plein-Air / de l'Escrime,  45.651273, -73.879493,7,82190,0
82191,du Plein-Air / du Biathlon,  45.651735, -73.880234,7,82191,0
82192,du Plein-Air / du Rallye,  45.652647, -73.884504,7,82192,0
82209,Turgeon / Beaudoin,  45.630986, -73.829800,5,82209,0
82210,Montée Sanche / Joly,  45.628838, -73.826538,5,82210,0
82211,Montée Sanche / de la Rose-des-Cèdres,  45.628315, -73.825775,5,82211,0
82214,Montée Sanche / Piette,  45.622686, -73.817319,5,82214,0
82215,Montée Sanche / Pelletier,  45.619960, -73.813247,5,82215,0
82216,de la Grande-Côte / 3e Avenue,  45.618446, -73.814406,5,82216,0
82217,de la Grande-Côte / 6e Avenue,  45.616486, -73.817434,5,82217,0
82218,de la Grande-Côte / de l'Île-Morris,  45.614146, -73.822054,5,82218,0
82219,de la Grande-Côte / Carignan,  45.613272, -73.823821,5,82219,0
82220,de la Grande-Côte / de Châteauneuf,  45.612664, -73.826817,5,82220,0
82221,de la Grande-Côte / Adrien-Chartrand,  45.610727, -73.830610,5,82221,0
82222,de la Grande-Côte / de la Grande-Allée,  45.607487, -73.833773,5,82222,0
82223,de la Grande-Allée / Champlain,  45.607640, -73.834432,5,82223,0
82224,de la Grande-Allée / de Champfleury,  45.609087, -73.837276,5,82224,0
82225,de la Grande-Allée / Cartier,  45.610922, -73.838757,5,82225,0
82226,de la Grande-Allée / Adrien-Chartrand,  45.614229, -73.838626,5,82226,0
82227,de la Grande-Allée / de Châteauneuf,  45.616931, -73.841334,5,82227,0
82228,de la Grande-Allée / Carpentier,  45.618685, -73.844294,5,82228,0
82229,de la Grande-Allée / Alexandre-le-Grand,  45.620109, -73.846246,5,82229,0
82230,de la Grande-Allée / de la Rivière-Cachée,  45.623788, -73.851589,5,82230,0
82233,de la Rivière-Cachée / de la Bastille,  45.618811, -73.858223,5,82233,0
82234,de la Rivière-Cachée / de la Renaissance,  45.615665, -73.862532,5,82234,0
82235,de la Rivière-Cachée / Bériot,  45.616581, -73.861504,5,82235,0
82236,de la Rivière-Cachée / de la Bastille,  45.618481, -73.858379,5,82236,0
82237,de la Rivière-Cachée / Bourassa,  45.619631, -73.856746,5,82237,0
82239,de la Rivière-Cachée / de la Grande-Allée,  45.623433, -73.852005,5,82239,0
82240,de la Grande-Allée / des Francs-Bourgeois,  45.626488, -73.854742,5,82240,0
82241,de la Grande-Allée / des Grandes-Tourelles,  45.630576, -73.860481,5,82241,0
82242,de la Grande-Allée / Lavoisier,  45.633322, -73.864467,5,82242,0
82243,de la Grande-Allée / devant l'aréna de Boisbriand,  45.613474, -73.838836,5,82243,0
82244,de la Grande-Allée / Cartier,  45.611112, -73.839056,5,82244,0
82245,de la Grande-Allée / de Champfleury,  45.609068, -73.837503,5,82245,0
82246,de la Grande-Allée / Champlain,  45.607609, -73.834815,5,82246,0
82247,de la Grande-Côte / de la Grande-Allée,  45.607289, -73.833659,5,82247,0
82248,de la Grande-Côte / de l'Île-de-Mai,  45.611179, -73.829674,5,82248,0
82249,de la Grande-Côte / de Châteauneuf,  45.612361, -73.827083,5,82249,0
82250,de la Grande-Côte / Carignan,  45.613099, -73.823803,5,82250,0
82251,de la Grande-Côte / de l'Île-Morris,  45.614016, -73.822095,5,82251,0
82252,de la Grande-Côte / Carré Dubois,  45.616129, -73.817467,5,82252,0
82253,de la Grande-Côte / 3e Avenue,  45.618375, -73.814337,5,82253,0
82254,de la Grande-Côte / Montée Sanche,  45.619278, -73.812505,5,82254,0
82255,Montée Sanche / Pelletier,  45.620057, -73.813097,5,82255,0
82256,Montée Sanche / Piette,  45.622962, -73.817089,5,82256,0
82257,Montée Sanche / Provencher,  45.624523, -73.819721,5,82257,0
82259,Montée Sanche / Philippe,  45.621263, -73.814843,5,82259,0
82260,Montée Sanche / de la Rose-des-Cèdres,  45.628289, -73.825464,5,82260,0
82261,Turgeon / Beaudoin,  45.630922, -73.829449,5,82261,0
82262,Turgeon / Desjardins Est,  45.632970, -73.832490,5,82262,0
82263,Desjardins Ouest / Leroux,  45.632270, -73.834274,5,82263,0
82264,Desjardins Ouest / Bélisle,  45.631438, -73.835329,5,82264,0
82265,Montée Sanche / Philippe,  45.621282, -73.815216,5,82265,0
82266,du Curé-Boivin / du Curé-Boivin,  45.620739, -73.826359,5,82266,0
82267,du Curé-Boivin / des Entreprises,  45.625422, -73.833151,5,82267,0
82268,des Entreprises / de Galais,  45.626252, -73.827855,5,82268,0
82269,des Entreprises / Montée Sanche,  45.627510, -73.824539,5,82269,0
82270,La Fayette Est / Alfred-Laliberté,  45.637394, -73.867935,6,82270,0
82271,Alfred-Laliberté / la Vérendrye,  45.637768, -73.859243,6,82271,0
82272,la Vérendrye / de la Côte Sud,  45.639286, -73.861241,6,82272,0
82273,Lionel-Bertrand / devant le civique #1805,  45.613322, -73.853602,5,82273,0
82277,Blainville Ouest / Sicard,  45.639604, -73.854392,6,82277,0
82278,Blainville Ouest / des Ormes,  45.638962, -73.849438,6,82278,0
82279,Blainville Ouest / Deschambault,  45.639126, -73.846838,6,82279,0
82284,Montée Sanche / Perron,  45.629805, -73.827990,5,82284,0
82285,du Curé-Labelle / Tanguay,  45.637740, -73.825504,5,82285,0
82286,Blainville Est / Bertrand,  45.639694, -73.829855,5,82286,0
82287,Blainville Est / Lacroix,  45.639460, -73.832318,5,82287,0
82288,Blainville Est / Dagenais,  45.639129, -73.835627,5,82288,0
82289,Blainville Est / Lachaîne,  45.639146, -73.837828,5,82289,0
82290,du Côteau / des Mille-Îles Ouest,  45.647354, -73.861159,6,82290,0
82291,des Mille-Îles Ouest / Latour,  45.649363, -73.864911,6,82291,0
82292,des Mille-Îles Ouest / Moreau,  45.651713, -73.868197,6,82292,0
82293,des Mille-Îles Ouest / Bélair,  45.653517, -73.870362,6,82293,0
82294,des Mille-Îles Ouest / Pilon,  45.656105, -73.872636,6,82294,0
82295,des Mille-Îles Ouest / Jacques-St-André,  45.657781, -73.871438,6,82295,0
82296,des Mille-Îles Est / Valois (1),  45.658279, -73.870729,6,82296,0
82297,des Mille-Îles Est / Paul-Sicotte,  45.659060, -73.867863,6,82297,0
82298,des Mille-Îles Est / Louis-Maron,  45.658735, -73.865884,6,82298,0
82299,des Mille-Îles Est / Valois (2),  45.657528, -73.864092,6,82299,0
82300,des Mille-Îles Est / Hardy,  45.656442, -73.862830,6,82300,0
82301,des Mille-Îles Est / De Sève,  45.654294, -73.862079,6,82301,0
82302,des Mille-Îles Est / Verschelden,  45.652193, -73.858995,6,82302,0
82303,du Côteau / devant le civique #604,  45.649832, -73.857597,6,82303,0
82304,des Mille-Îles Est / Marie-Thérèse,  45.649234, -73.855328,6,82304,0
82305,des Mille-Îles Est / de la Côte-Saint-Louis Ouest,  45.647042, -73.852031,6,82305,0
82306,Saint-Louis / Claude-Lamarche,  45.645687, -73.849622,6,82306,0
82307,du Curé-Labelle / du Séminaire,  45.645789, -73.837655,5,82307,0
82308,du Curé-Labelle / devant la Place Élite,  45.644356, -73.835379,5,82308,0
82309,René-A.-Robert / Valiquette,  45.644716, -73.831860,6,82309,0
82310,du Domaine / René-A.-Robert,  45.646435, -73.825876,6,82310,0
82311,du Domaine / devant la polyvalente Sainte-Thérèse,  45.648340, -73.827272,6,82311,0
82312,du Domaine / Hemlock,  45.649360, -73.832157,6,82312,0
82313,du Domaine / du Ravin,  45.647776, -73.836661,6,82313,0
82314,du Domaine / du Curé-Labelle,  45.646919, -73.838837,5,82314,0
82315,Saint-Louis / Claude-Lamarche,  45.645748, -73.850228,6,82315,0
82316,Saint-Louis / de la Côte-Saint-Louis,  45.646954, -73.851105,6,82316,0
82317,des Mille-Îles Est / Marie-Thérèse,  45.649293, -73.854861,6,82317,0
82318,des Mille-Îles Est / du Côteau,  45.650530, -73.856563,6,82318,0
82319,des Mille-Îles Est / Verschelden,  45.652149, -73.858498,6,82319,0
82320,des Mille-Îles Est / De Sève,  45.654402, -73.861597,6,82320,0
82321,des Mille-Îles Est / Hardy,  45.656297, -73.862348,6,82321,0
82322,des Mille-Îles Est / Valois (1),  45.657629, -73.863656,6,82322,0
82323,des Mille-Îles Est / Louis-Maron,  45.658754, -73.865366,6,82323,0
82324,des Mille-Îles Est / Paul-Sicotte,  45.659336, -73.867539,6,82324,0
82325,des Mille-Îles Est / Valois (2),  45.658604, -73.871004,6,82325,0
82326,des Mille-Îles Ouest / Jacques-St-André,  45.658211, -73.871434,6,82326,0
82327,des Mille-Îles Ouest / Pilon,  45.656323, -73.873052,6,82327,0
82328,des Mille-Îles Ouest / Bélair,  45.653452, -73.870718,6,82328,0
82329,des Mille-Îles Ouest / Moreau,  45.651788, -73.868796,6,82329,0
82330,des Mille-Îles Ouest / Latour,  45.649137, -73.865387,6,82330,0
82331,des Mille-Îles Ouest / du Côteau,  45.647606, -73.861475,6,82331,0
82332,Blainville Est / Turgeon,  45.639479, -73.841611,5,82332,0
82333,Blainville Est / Lachaîne,  45.639001, -73.838344,5,82333,0
82334,Blainville Est / Sénécal,  45.638851, -73.836572,5,82334,0
82335,Blainville Est / Lacroix,  45.639173, -73.832768,5,82335,0
82336,Blainville Est / du Curé-Labelle,  45.639139, -73.828049,5,82336,0
82337,du Curé-Labelle / Tanguay,  45.637707, -73.825664,5,82337,0
82338,Desjardins Ouest / Leroux,  45.631869, -73.834150,5,82338,0
82340,du Côteau / des Mille-Îles Est,  45.650229, -73.856763,6,82340,0
82341,du Côteau / Verschelden,  45.648790, -73.858853,6,82341,0
82342,des Mille-Îles Est / du Côteau,  45.650389, -73.857049,6,82342,0
82343,Blainville Est / Mainville,  45.639006, -73.824961,6,82343,0
82344,Blainville Est / Saint-Pierre,  45.639524, -73.823088,6,82344,0
82345,Blainville Est / devant l'académie Sainte-Thérèse,  45.641212, -73.817723,6,82345,0
82346,Blainville Est / devant le civique #463,  45.642471, -73.814972,6,82346,0
82347,du Bas-de-Sainte-Thérèse / de Valcourt,  45.643628, -73.813607,6,82347,0
82348,du Bas-de-Sainte-Thérèse / Martin,  45.645649, -73.811574,6,82348,0
82349,du Bas-de-Sainte-Thérèse / Lauréanne,  45.647023, -73.810651,6,82349,0
82350,du Bas-de-Sainte-Thérèse / Raymond-Lapalice,  45.648507, -73.809226,6,82350,0
82351,du Bas-de-Sainte-Thérèse / de la Renaissance,  45.650375, -73.807762,6,82351,0
82352,de la Renaissance / Anita-Michel,  45.651647, -73.810241,6,82352,0
82353,de la Renaissance / Nicolas-Manthet,  45.652877, -73.811945,6,82353,0
82354,de la Renaissance / Jeanne-Bonfond,  45.653550, -73.813847,6,82354,0
82355,de la Renaissance / d'Annecy,  45.653111, -73.815758,6,82355,0
82356,de la Renaissance / de Batiscan,  45.654476, -73.822093,6,82356,0
82357,de Batiscan / de Joutel,  45.652937, -73.824625,6,82357,0
82358,de Joutel / de Fontenelle,  45.654904, -73.827814,6,82358,0
82359,de Fontenelle / de la Renaissance,  45.655444, -73.824467,6,82359,0
82360,de la Renaissance / de Batiscan,  45.654475, -73.822536,6,82360,0
82361,de la Renaissance / d'Annecy,  45.652935, -73.816045,6,82361,0
82362,d'Annecy / Dubreuil,  45.651208, -73.816318,6,82362,0
82363,d'Annecy / de Varennes,  45.649414, -73.818482,6,82363,0
82364,d'Annecy / René-A.-Robert,  45.645638, -73.819791,6,82364,0
82365,René-A.-Robert / face au civique #181,  45.646234, -73.823211,6,82365,0
82366,De Gaulle / devant l'hôtel de ville de Lorraine,  45.658271, -73.774820,5,82366,0
82367,du Curé-Labelle / Châtelier,  45.642160, -73.832295,5,82367,0
82368,de la Grande-Côte / Labelle,  45.623232, -73.803556,5,82368,0
82369,de la Grande-Côte / Westgate,  45.621465, -73.806431,5,82369,0
82370,de la Grande-Côte / Willowtree,  45.620108, -73.810294,5,82370,0
82371,de la Grande-Côte / Montée Sanche,  45.619672, -73.812088,5,82371,0
82372,de la Grande-Côte / Chamberlain,  45.605525, -73.835183,5,82372,0
82373,de la Grande-Côte / Jean-Duceppe,  45.602572, -73.837127,5,82373,0
82374,de la Grande-Côte / Gabrielle-Roy,  45.599693, -73.838788,5,82374,0
82375,de la Grande-Côte / Jean-Pierre-Ferland,  45.597217, -73.840191,5,82375,0
82376,de la Grande-Côte / Terrasse Filion,  45.594773, -73.841862,5,82376,0
82377,de la Grande-Côte / 62e Avenue,  45.586722, -73.850745,5,82377,0
82378,de la Grande-Côte / 59e Avenue,  45.584908, -73.852352,5,82378,0
82379,de la Grande-Côte / 57e Avenue,  45.583896, -73.853601,5,82379,0
82380,de la Grande-Côte / 55e Avenue,  45.582820, -73.855120,5,82380,0
82381,de la Grande-Côte / Éric,  45.580986, -73.857721,5,82381,0
82382,de la Grande-Côte / 45e Avenue,  45.578717, -73.859662,5,82382,0
82383,de la Grande-Côte / 42e Avenue,  45.577079, -73.861080,5,82383,0
82384,de la Grande-Côte / 39e Avenue,  45.576013, -73.862418,5,82384,0
82385,de la Grande-Côte / 37e Avenue,  45.574920, -73.863680,5,82385,0
82386,de la Grande-Côte / 34e Avenue,  45.573718, -73.865197,5,82386,0
82387,de la Grande-Côte / 31e Avenue,  45.572387, -73.866928,5,82387,0
82388,de la Grande-Côte / 25e Avenue,  45.570609, -73.869583,5,82388,0
82389,de la Grande-Côte / 21e Avenue,  45.568404, -73.872718,5,82389,0
82390,de la Grande-Côte / 18e Avenue,  45.567210, -73.874494,5,82390,0
82391,de la Grande-Côte / 15e Avenue,  45.566225, -73.875947,5,82391,0
82392,de la Grande-Côte / 11e Avenue,  45.565135, -73.878186,5,82392,0
82393,de la Grande-Côte / Goyer,  45.563437, -73.882810,5,82393,0
82394,de la Grande-Côte / des Mille-Îles,  45.561861, -73.885997,5,82394,0
82395,de la Grande-Côte / Arthur-Sauvé,  45.560810, -73.887210,5,82395,0
82397,Montée Gagnon / de Savoie,  45.692101, -73.800924,6,82397,0
82398,de la Grande-Côte / des Mille-Îles,  45.592188, -73.843947,5,82398,0
82402,de la Grande-Côte / Goyer,  45.563163, -73.883002,5,82402,0
82403,de la Grande-Côte / 11e Avenue,  45.564792, -73.878562,5,82403,0
82404,de la Grande-Côte / 15e Avenue,  45.566097, -73.875872,5,82404,0
82405,de la Grande-Côte / 21e Avenue,  45.568373, -73.872727,5,82405,0
82406,de la Grande-Côte / 25e Avenue,  45.570289, -73.869811,5,82406,0
82407,de la Grande-Côte / 29e Avenue,  45.571456, -73.868054,5,82407,0
82408,de la Grande-Côte / 34e Avenue,  45.573576, -73.865194,5,82408,0
82409,de la Grande-Côte / 37e Avenue,  45.574836, -73.863641,5,82409,0
82410,de la Grande-Côte / 39e Avenue,  45.576316, -73.861741,5,82410,0
82411,de la Grande-Côte / 42e Avenue,  45.576908, -73.861123,5,82411,0
82412,de la Grande-Côte / 45e Avenue,  45.578259, -73.859798,5,82412,0
82413,de la Grande-Côte / 49e Avenue,  45.580406, -73.858110,5,82413,0
82414,de la Grande-Côte / 54e Avenue,  45.582565, -73.855238,5,82414,0
82415,de la Grande-Côte / 56e Avenue,  45.583375, -73.854131,5,82415,0
82416,de la Grande-Côte / 59e Avenue,  45.584636, -73.852522,5,82416,0
82417,de la Grande-Côte / 63e Avenue,  45.586364, -73.850830,5,82417,0
82418,de la Grande-Côte / des Mille-Îles,  45.592042, -73.844002,5,82418,0
82419,de la Grande-Côte / Terrasse Filion,  45.594663, -73.841634,5,82419,0
82420,de la Grande-Côte / Jean-Pierre-Ferland,  45.596840, -73.840166,5,82420,0
82421,de la Grande-Côte / Gabrielle-Roy,  45.599274, -73.838687,5,82421,0
82422,de la Grande-Côte / Jean-Duceppe,  45.602390, -73.837015,5,82422,0
82423,de la Grande-Côte / Chauvin,  45.605403, -73.835212,5,82423,0
82425,de Vignory / de Baccarat,  45.679004, -73.782211,5,82425,0
82426,de Vignory / Fraser,  45.677975, -73.783581,5,82426,0
82427,de Vignory / Place d'Argonne,  45.676326, -73.784952,5,82427,0
82428,de Vignory / de Bourbonne,  45.675013, -73.784792,5,82428,0
82429,de Vignory / de Reims,  45.672834, -73.785604,5,82429,0
82430,de Vignory / Place de Dompierre,  45.671635, -73.787218,5,82430,0
82431,de Vignory / De Gaulle,  45.670469, -73.788815,5,82431,0
82432,De Gaulle / du Val-d'Ajol,  45.669424, -73.787317,5,82432,0
82433,De Gaulle / de Montbéliard,  45.666576, -73.783406,5,82433,0
82434,De Gaulle / face à la Place Lorraine,  45.665527, -73.782878,5,82434,0
82435,De Gaulle / de Nancy,  45.660405, -73.778620,5,82435,0
82436,De Gaulle / face à l'hôtel de ville de Lorraine,  45.658906, -73.776468,5,82436,0
82437,De Gaulle / de Chambord,  45.657584, -73.774330,5,82437,0
82438,De Gaulle / de la Grande-Côte,  45.655727, -73.771434,5,82438,0
82439,de la Grande-Côte / devant le civique #105,  45.654142, -73.772759,5,82439,0
82440,de la Grande-Côte / devant le civique #100,  45.654038, -73.772546,5,82440,0
82441,Roland-Durand / du Champagne,  45.651740, -73.776707,5,82441,0
82442,Roland-Durand / des Vignobles,  45.652301, -73.778630,5,82442,0
82443,Roland-Durand / Northcote,  45.651345, -73.782259,5,82443,0
82444,Roland-Durand / Montée Lesage,  45.650278, -73.786732,5,82444,0
82445,Roland-Durand / Poplar,  45.649831, -73.791483,5,82445,0
82446,Roland-Durand / de la Roseraie,  45.649360, -73.796759,5,82446,0
82447,Roland-Durand / des Prés,  45.649125, -73.797732,5,82447,0
82448,Roland-Durand / de Lorraine,  45.647374, -73.800505,5,82448,0
82449,Roland-Durand / du Colibri,  45.646265, -73.802030,5,82449,0
82450,Roland-Durand / Jeanne-Mance,  45.645039, -73.803581,5,82450,0
82451,Roland-Durand / des Roitelets,  45.642856, -73.806786,5,82451,0
82452,Roland-Durand / Rosemère,  45.641067, -73.809737,5,82452,0
82453,Roland-Durand / du Bosquet,  45.640023, -73.810798,5,82453,0
82454,Roland-Durand / devant le Harnois,  45.639037, -73.811685,5,82454,0
82455,Roland-Durand / du Bosquet,  45.639831, -73.810638,5,82455,0
82456,Roland-Durand / Rosemère,  45.641042, -73.809472,5,82456,0
82457,Roland-Durand / Cardinal,  45.642052, -73.807711,5,82457,0
82458,Roland-Durand / Jeanne-Mance,  45.644844, -73.803696,5,82458,0
82459,Roland-Durand / du Colibri,  45.646113, -73.801834,5,82459,0
82460,Roland-Durand / de Lorraine,  45.647220, -73.800359,5,82460,0
82461,Roland-Durand / des Prés,  45.648855, -73.797730,5,82461,0
82462,Roland-Durand / de la Roseraie,  45.649050, -73.797022,5,82462,0
82463,Roland-Durand / Poplar,  45.649692, -73.791666,5,82463,0
82464,Roland-Durand / Montée Lesage,  45.649890, -73.786950,5,82464,0
82465,Roland-Durand / Northcote,  45.651053, -73.783617,5,82465,0
82466,Roland-Durand / des Vignobles,  45.651893, -73.779414,5,82466,0
82467,Roland-Durand / du Champagne,  45.651702, -73.777084,5,82467,0
82468,De Gaulle / de Chambord,  45.657718, -73.773920,5,82468,0
82470,De Gaulle / de Nancy,  45.660431, -73.778099,5,82470,0
82471,De Gaulle / devant la Place Lorraine,  45.665496, -73.782444,5,82471,0
82472,De Gaulle / du Val-d'Ajol,  45.669452, -73.786742,5,82472,0
82473,De Gaulle / de Vignory,  45.670395, -73.788696,5,82473,0
82474,de Vignory / Place de Dompierre,  45.671564, -73.787179,5,82474,0
82475,de Vignory / de Reims,  45.672667, -73.785642,5,82475,0
82476,de Vignory / de Bourbonne,  45.675230, -73.784537,5,82476,0
82477,de Vignory / d'Aigremont,  45.676159, -73.784633,5,82477,0
82478,de Vignory / Fraser,  45.677528, -73.783535,5,82478,0
82479,de Vignory / Montée Gagnon,  45.679048, -73.781656,5,82479,0
82480,du Curé-Labelle / de la Côte-Saint-Louis Est,  45.651812, -73.846202,6,82480,0
82481,du Curé-Labelle / 20e Avenue Ouest,  45.653446, -73.848603,6,82481,0
82482,du Curé-Labelle / 27e Avenue Ouest,  45.656551, -73.853482,6,82482,0
82483,du Curé-Labelle / 33e Avenue Est,  45.658106, -73.855962,6,82483,0
82484,du Curé-Labelle / 37e Avenue Est,  45.660897, -73.860170,6,82484,0
82485,du Curé-Labelle / 43e Avenue Est,  45.663793, -73.864736,6,82485,0
82486,du Curé-Labelle / 48e Avenue Est,  45.666192, -73.868396,6,82486,0
82487,du Curé-Labelle / 54e Avenue Est,  45.668840, -73.872502,6,82487,0
82488,du Curé-Labelle / devant le civique #832,  45.669787, -73.873964,6,82488,0
82489,du Curé-Labelle / 62e Avenue Est,  45.671585, -73.876792,6,82489,0
82490,du Curé-Labelle / 68e Avenue Est,  45.673591, -73.879821,6,82490,0
82491,du Curé-Labelle / 71e Avenue Est,  45.674591, -73.881480,6,82491,0
82492,du Curé-Labelle / 76e Avenue Est,  45.676880, -73.884957,6,82492,0
82493,du Curé-Labelle / 85e Avenue Ouest,  45.679379, -73.888930,6,82493,0
82494,du Curé-Labelle / devant le Club Piscine,  45.680380, -73.890539,6,82494,0
82495,du Curé-Labelle / 89e Avenue Est,  45.681493, -73.892215,6,82495,0
82496,du Curé-Labelle / 92e Avenue Est,  45.683018, -73.894614,6,82496,0
82497,du Curé-Labelle / 100e Avenue Est,  45.685561, -73.898557,6,82497,0
82498,du Curé-Labelle / 104e Avenue Est,  45.687255, -73.901211,6,82498,0
82499,du Curé-Labelle / 109e Avenue Ouest,  45.688323, -73.902865,6,82499,0
82500,du Curé-Labelle / Jean-Dallaire,  45.689624, -73.904900,6,82500,0
82501,du Curé-Labelle / devant le civique #1430,  45.691806, -73.908264,6,82501,0
82502,du Curé-Labelle / devant le civique #1454,  45.694199, -73.912116,6,82502,0
82503,du Curé-Labelle / devant le civique #13255,  45.697389, -73.916860,7,82503,0
82504,du Curé-Labelle / Lapointe,  45.698974, -73.919281,7,82504,0
82505,du Curé-Labelle / Jeannette,  45.700520, -73.921726,7,82505,0
82506,du Curé-Labelle / Gabrielle,  45.701696, -73.923557,7,82506,0
82507,du Curé-Labelle / Saint-Georges,  45.703243, -73.925961,7,82507,0
82508,du Curé-Labelle / Victor,  45.704727, -73.928139,7,82508,0
82509,du Curé-Labelle / devant le civique #13987,  45.706882, -73.931395,7,82509,0
82510,du Curé-Labelle / du Val-d'Espoir,  45.708404, -73.933734,7,82510,0
82511,du Curé-Labelle / de la Paix,  45.710113, -73.936217,7,82511,0
82512,des Laurentides / du Boisé,  45.751707, -73.978155,7,82512,0
82514,Bas-de-Sainte-Thérèse / face à l'école Montessori,  45.652290, -73.798996,5,82514,0
82515,Desjardins Ouest / Bélisle,  45.631016, -73.835313,5,82515,0
82516,De Montigny / face à l'hôpital de Saint-Jérôme,  45.766626, -73.998647,7,82516,0
82517,de la Grande-Allée / Cours le Corbusier,  45.619506, -73.846011,5,82517,0
82518,du Curé-Labelle / Céloron,  45.695709, -73.914469,6,82518,0
82519,de la Grande-Allée / Carpentier,  45.618669, -73.844702,5,82519,0
82520,des Laurentides / devant le civique #1185,  45.755145, -73.980769,7,82520,0
82521,des Laurentides / devant le civique #1150,  45.754948, -73.981084,7,82521,0
82523,de la Grande-Allée / de Châteauneuf,  45.616987, -73.841802,5,82523,0
82524,de la Grande-Allée / Réal-Béland,  45.630591, -73.861215,5,82524,0
82525,Montée Sanche / Joly,  45.628798, -73.826272,5,82525,0
82526,des Laurentides / devant les Galeries Laurentides,  45.763012, -73.993551,7,82526,0
82527,des Laurentides / Saint-Antoine,  45.760772, -73.989929,7,82527,0
82528,des Laurentides / 16e Rue,  45.759404, -73.987982,7,82528,0
82529,des Laurentides / du Boisé,  45.751815, -73.978463,7,82529,0
82530,du Curé-Labelle / de la Paix,  45.709987, -73.937093,7,82530,0
82531,du Curé-Labelle / Brault,  45.708390, -73.934277,7,82531,0
82532,du Curé-Labelle / Gravel,  45.706806, -73.931844,7,82532,0
82533,du Curé-Labelle / Victor,  45.704713, -73.928706,7,82533,0
82534,du Curé-Labelle / Charles,  45.703155, -73.926256,7,82534,0
82535,du Curé-Labelle / Gabrielle,  45.701674, -73.923952,7,82535,0
82536,du Curé-Labelle / Jeannette,  45.700473, -73.922214,7,82536,0
82537,du Curé-Labelle / Boileau,  45.699078, -73.920119,7,82537,0
82538,du Curé-Labelle / devant le civique #13248,  45.697137, -73.917193,7,82538,0
82539,du Curé-Labelle / face au civique #1454,  45.694175, -73.912230,6,82539,0
82540,du Curé-Labelle / 110e Avenue Ouest,  45.689056, -73.904408,6,82540,0
82541,du Curé-Labelle / 104e Avenue Est,  45.687388, -73.901844,6,82541,0
82542,du Curé-Labelle / 100e Avenue Est,  45.685635, -73.899138,6,82542,0
82543,du Curé-Labelle / 92e Avenue Ouest,  45.683064, -73.895181,6,82543,0
82544,du Curé-Labelle / 89e Avenue Ouest,  45.681547, -73.892740,6,82544,0
82545,du Curé-Labelle / 87e Avenue Ouest,  45.680392, -73.890967,6,82545,0
82546,du Curé-Labelle / 84e Avenue Ouest,  45.678936, -73.888640,6,82546,0
82547,du Curé-Labelle / 76e Avenue Ouest,  45.676922, -73.885539,6,82547,0
82548,du Curé-Labelle / 74e Avenue Est,  45.676138, -73.884323,6,82548,0
82549,du Curé-Labelle / 70e Avenue Ouest,  45.674335, -73.881603,6,82549,0
82551,du Curé-Labelle / 61e Avenue Ouest,  45.671015, -73.876519,6,82551,0
82552,du Curé-Labelle / 54e Avenue Ouest,  45.668888, -73.873181,6,82552,0
82553,du Curé-Labelle / 68e Avenue Ouest,  45.673614, -73.880371,6,82553,0
82554,du Curé-Labelle / des Fleurs,  45.665849, -73.868430,6,82554,0
82555,du Curé-Labelle / 43e Avenue Ouest,  45.663630, -73.864992,6,82555,0
82556,du Curé-Labelle / 36e Avenue Ouest,  45.660662, -73.860452,6,82556,0
82557,du Curé-Labelle / 34e Avenue Ouest,  45.658667, -73.857325,6,82557,0
82558,du Curé-Labelle / 27e Avenue Ouest,  45.656350, -73.853816,6,82558,0
82559,du Curé-Labelle / 20e Avenue Ouest,  45.653448, -73.849060,6,82559,0
82560,de la Seigneurie Est / devant la gare Blainville,  45.671772, -73.864251,6,82560,0
82561,de la Seigneurie Est / devant le civique #16,  45.668875, -73.868091,6,82561,0
82562,Curé-Labelle / des Oiseaux,  45.592309, -73.786702,3,82562,0
82566,84e Avenue Ouest / Richard,  45.675810, -73.891772,6,82566,0
82567,Richard / Place Louis-Hémon,  45.676938, -73.895258,6,82567,0
82568,Richard / des Geais-Bleus,  45.677761, -73.896508,6,82568,0
82569,Richard / des Pinsons,  45.678646, -73.897917,6,82569,0
82570,Richard / des Grives,  45.679994, -73.899884,6,82570,0
82571,Richard / des Bouvreuils,  45.682106, -73.902465,6,82571,0
82572,d'Alençon / Notre-Dame,  45.682927, -73.903741,6,82572,0
82573,109e Avenue Ouest / de Deauville,  45.687117, -73.904534,6,82573,0
82574,d'Alençon / de Clécy,  45.683933, -73.905330,6,82574,0
82575,d'Alençon / 109e Avenue Ouest,  45.685098, -73.907170,6,82575,0
82576,109e Avenue Ouest / du Curé-Labelle,  45.688155, -73.903105,6,82576,0
82577,Céloron / Maurice-Cullen,  45.697348, -73.902130,6,82577,0
82578,Céloron / du Blainvillier,  45.699002, -73.899239,6,82578,0
82579,Céloron / de la Sentinelle,  45.696878, -73.894380,6,82579,0
82580,Céloron / devant le civique #1213,  45.694709, -73.891353,6,82580,0
82581,Céloron / du 5e-Régiment-d'Artillerie,  45.693068, -73.889190,6,82581,0
82582,Céloron / du Carabinier,  45.690140, -73.885157,6,82582,0
82583,Céloron / du Landais,  45.688417, -73.877808,6,82583,0
82584,Céloron / de l'Ardenais,  45.684947, -73.872141,6,82584,0
82585,Céloron / du Plan-Bouchard,  45.683268, -73.869921,6,82585,0
82587,Curé-Labelle / de la Canardière,  45.595251, -73.787530,3,82587,0
82588,Curé-Labelle / de la Renaissance,  45.601713, -73.789288,3,82588,0
82589,Curé-Labelle / Marc-Aurèle-Fortin,  45.605429, -73.790366,3,82589,0
82590,Curé-Labelle / du Roi-du-Nord,  45.608036, -73.791218,3,82590,0
82595,du Côteau / Verschelden,  45.648945, -73.859052,6,82595,0
82597,Place Rosemère / devant la porte #1,  45.629550, -73.818847,5,82597,0
82601,Céloron / Henri-Beau,  45.696732, -73.906790,6,82601,0
82602,Montée Gagnon / de Savoie,  45.692118, -73.801272,6,82602,0
82603,Bouthillier / devant le Canadian Tire,  45.628536, -73.822887,5,82603,0
82604,Bouthillier / face au Pharmaprix,  45.628084, -73.818716,5,82604,0
82605,Bouthillier / face au La Baie,  45.629302, -73.816876,5,82605,0
82606,Bouthillier / devant le La Baie,  45.629825, -73.816473,5,82606,0
82611,Curé-Labelle / Sainte-Rose,  45.610493, -73.792164,3,82611,0
82612,Curé-Labelle / Cloutier,  45.608391, -73.791524,3,82612,0
82613,Curé-Labelle / Marc-Aurèle-Fortin,  45.605672, -73.790816,3,82613,0
82614,Curé-Labelle / de la Renaissance,  45.601863, -73.789772,3,82614,0
82615,Curé-Labelle / Drapeau,  45.595386, -73.787966,3,82615,0
82616,Curé-Labelle / Yvon-Berger,  45.591209, -73.786906,3,82616,0
82618,Montée Lesage / Lefrançois,  45.651000, -73.788076,5,82618,0
82619,Montée Lesage / Pineridge,  45.653209, -73.793324,5,82619,0
82620,des Châteaux / du Bas-de-Sainte-Thérèse,  45.651670, -73.802921,6,82620,0
82628,Montée Lesage / Place Lesage,  45.652413, -73.790632,5,82628,0
82629,Montée Lesage / Lefrançois,  45.650981, -73.788464,5,82629,0
82630,Montée Lesage / Roland-Durand,  45.650037, -73.787320,5,82630,0
82679,de la Grande-Allée / Ambroise-Lafortune,  45.639849, -73.873877,6,82679,0
82680,Polyvalente Sainte-Thérèse,  45.648500, -73.825978,6,82680,0
82681,Ambroise-Lafortune / Doris-Lussier,  45.641101, -73.867635,6,82681,0
82682,Ambroise-Lafortune / de la Côte Sud,  45.639635, -73.861700,6,82682,0
82683,de Lachalade / du Climont,  45.678144, -73.786329,5,82683,0
82685,des Châteaux / du Belvédère,  45.658095, -73.804526,5,82685,0
82686,des Châteaux / de l'Ermitage,  45.659390, -73.807527,5,82686,0
82687,des Châteaux / de Fontainebleau,  45.660563, -73.809575,5,82687,0
82688,de Fontainebleau / de l'Alhambra,  45.661271, -73.808710,5,82688,0
82689,de Fontainebleau / de Maintenon,  45.665383, -73.807683,5,82689,0
82690,de Fontainebleau / du Castillo,  45.663747, -73.807260,5,82690,0
82691,de Fontainebleau / des Visconti,  45.666050, -73.808163,5,82691,0
82692,de Fontainebleau / de Montauban,  45.667378, -73.810591,5,82692,0
82693,de Fontainebleau / de Vincennes,  45.669504, -73.813994,5,82693,0
82694,de Fontainebleau / de Rochebonne,  45.671418, -73.817690,5,82694,0
82695,de Fontainebleau / de Falaise,  45.671504, -73.818523,5,82695,0
82696,de Fontainebleau / de Josselin,  45.671458, -73.819634,5,82696,0
82697,de Fontainebleau / de Lindoso,  45.670452, -73.822264,5,82697,0
82698,de Fontainebleau / de Vitré,  45.668630, -73.824874,5,82698,0
82699,de Fontainebleau / de Lourmarin,  45.665940, -73.826576,5,82699,0
82700,de Fontainebleau / de Rochefort,  45.664520, -73.826499,5,82700,0
82701,de Fontainebleau / d'Ambroise,  45.663192, -73.825055,5,82701,0
82702,de Fontainebleau / de Franchimont,  45.660505, -73.821377,6,82702,0
82703,de Fontainebleau / de Brissac,  45.658720, -73.818801,6,82703,0
82704,de Fontainebleau / de Chéverny,  45.657970, -73.817620,5,82704,0
82705,de Fontainebleau / de Montebello,  45.657632, -73.815820,6,82705,0
82706,de Fontainebleau / devant le civique #18,  45.659060, -73.811771,5,82706,0
82707,de Fontainebleau / des Châteaux,  45.660353, -73.809926,5,82707,0
82708,des Châteaux / de l'Ermitage,  45.659310, -73.807949,5,82708,0
82709,des Châteaux / du Belvédère,  45.658084, -73.804943,5,82709,0
82710,des Châteaux / Suzanne-Gaspard,  45.653739, -73.802608,5,82710,0
82712,de la Grande-Côte / Maisonneuve,  45.645206, -73.781743,5,82712,0
82714,de la Grande-Côte / Diane-Juster,  45.597948, -73.839454,5,82714,0
82715,Montée Gagnon / de Vignory,  45.679241, -73.782008,5,82715,0
82720,de Chambord / de Marsal,  45.658588, -73.772503,5,82720,0
82721,de Chambord / Prince-Val,  45.663344, -73.769357,5,82721,0
82722,de Chambord / d'Orléans,  45.664619, -73.770457,5,82722,0
82725,de la Grande-Allée / de la Rivière-Cachée,  45.623826, -73.852346,5,82725,0
82726,Rivière-Cachée / devant le Centre de la Rivière,  45.623097, -73.853092,5,82726,0
82727,Provencher / de Péribonka,  45.623288, -73.821820,5,82727,0
82728,Lionel-Bertrand / de la Renaissance,  45.610783, -73.854900,5,82728,0
82729,de la Renaissance / de Boischâtel,  45.613534, -73.858970,5,82729,0
82730,de la Renaissance / de la Rivière-Cachée,  45.615692, -73.862124,5,82730,0
82731,de la Grande-Allée / La Fayette Est,  45.636503, -73.868948,6,82731,0
82732,du Côteau / des Mille-Îles Ouest,  45.647830, -73.861067,6,82732,0
82733,de la Grande-Allée / Bourassa,  45.626487, -73.855320,5,82733,0
82734,école Jean-Jacques-Rousseau,  45.615433, -73.855855,5,82734,1
82735,Carignan / Couturier,  45.614897, -73.825168,5,82735,1
82736,de Châteauneuf / Cadoret,  45.619103, -73.837276,5,82736,1
82737,De Gaulle / du Val-d'Ajol,  45.674334, -73.792672,5,82737,0
82738,du Val-d'Ajol / de Nogent,  45.673636, -73.794230,5,82738,0
82739,du Val-d'Ajol / Place de Champenoux,  45.670583, -73.797571,5,82739,0
82740,du Val-d'Ajol / Place d'Étain,  45.669033, -73.797342,5,82740,0
82741,du Val-d'Ajol / de Château-Salins (1),  45.668463, -73.796843,5,82741,0
82742,du Val-d'Ajol / de Bayon,  45.667610, -73.795369,5,82742,0
82743,du Val-d'Ajol / Place de Futeau,  45.666815, -73.792727,5,82743,0
82744,du Val-d'Ajol / de Montbéliard,  45.666653, -73.790356,5,82744,0
82745,du Val-d'Ajol / de Château-Salins (2),  45.667806, -73.788638,5,82745,0
82746,du Val-d'Ajol / De Gaulle,  45.669293, -73.787096,5,82746,0
82747,du Val-d'Ajol / de Château-Salins (1),  45.667836, -73.789071,5,82747,0
82748,du Val-d'Ajol / de Montbéliard,  45.667012, -73.790155,5,82748,0
82749,du Val-d'Ajol / Place de Futeau,  45.667077, -73.792694,5,82749,0
82750,du Val-d'Ajol / de Bayon,  45.667751, -73.794820,5,82750,0
82751,du Val-d'Ajol / de Château-Salins (2),  45.668527, -73.796484,5,82751,0
82752,du Val-d'Ajol / Place d'Étain,  45.669334, -73.797083,5,82752,0
82753,du Val-d'Ajol / Place de Champenoux,  45.670744, -73.797005,5,82753,0
82754,du Val-d'Ajol / de Nogent,  45.673249, -73.794214,5,82754,0
82755,du Val-d'Ajol / De Gaulle,  45.674002, -73.792690,5,82755,0
82757,de Bourbonne / de Lachalade (1),  45.673401, -73.790425,5,82757,0
82759,du Palais / Cégep de Saint-Jérôme,  45.778446, -74.000633,7,82759,0
82760,du Grand-Prix / de Silverstone,  45.644288, -73.878005,7,82760,0
82761,de Chambord / de Marsal (2),  45.659906, -73.770183,5,82761,0
82762,de Chambord / d'Orléans,  45.661707, -73.769371,5,82762,0
82763,d'Orléans / de Nancy,  45.663120, -73.772394,5,82763,0
82764,de Nancy / de Saverne,  45.661666, -73.776909,5,82764,0
82765,de Nancy / De Gaulle,  45.660610, -73.778360,5,82765,0
82766,de la Grande-Côte / du Pinot,  45.649749, -73.777677,5,82766,0
82767,du Grand-Prix / de Nevers,  45.646609, -73.880672,7,82767,0
82768,Montée Lesage / Northcote,  45.648800, -73.785245,5,82768,0
82769,Northcote / de Melrose,  45.647504, -73.788707,5,82769,0
82770,Northcote / Poplar,  45.647613, -73.790430,5,82770,0
82771,Northcote / Linden,  45.645953, -73.792883,5,82771,0
82772,Northcote / Orchard,  45.645159, -73.795073,5,82772,0
82773,Northcote / de Lorraine,  45.644684, -73.796540,5,82773,0
82774,Northcote / Rose-Alma,  45.644033, -73.798124,5,82774,0
82775,Northcote / Champlain,  45.643496, -73.799357,5,82775,0
82776,Northcote / Bertrand,  45.641637, -73.800420,5,82776,0
82777,Northcote / Montview,  45.640417, -73.799913,5,82777,0
82778,Northcote / Cedar,  45.638884, -73.799996,5,82778,0
82779,du Grand-Prix / Indianapolis,  45.648551, -73.882553,7,82779,0
82780,Cedar / Pine,  45.636948, -73.797116,5,82780,0
82781,Cedar / Northcote,  45.638697, -73.799870,5,82781,0
82782,Northcote / Montview,  45.640395, -73.799555,5,82782,0
82783,Northcote / Bertrand,  45.641452, -73.800206,5,82783,0
82784,Northcote / Champlain,  45.643197, -73.799606,5,82784,0
82785,Northcote / Rose-Alma,  45.643753, -73.798207,5,82785,0
82786,Northcote / de Lorraine,  45.644525, -73.796325,5,82786,0
82787,Northcote / Orchard,  45.644873, -73.795218,5,82787,0
82788,Northcote / Linden,  45.645532, -73.793147,5,82788,0
82789,Northcote / Poplar,  45.647340, -73.790671,5,82789,0
82790,Northcote / de Melrose,  45.647265, -73.789409,5,82790,0
82791,Northcote / Montée Lesage,  45.648533, -73.785072,5,82791,0
82792,Montée Lesage / Roland-Durand,  45.649942, -73.786562,5,82792,0
82804,Roland-Durand / de la Lande,  45.639004, -73.811802,5,82804,0
82806,du Grand-Prix / du Mans,  45.647895, -73.882387,7,82806,0
82807,Montée Sanche / des Mélèzes,  45.623270, -73.818244,5,82807,0
82808,Montée Sanche / des Mélèzes,  45.623257, -73.817866,5,82808,0
82809,du Grand-Prix / de Nevers,  45.646609, -73.880728,7,82809,0
82810,du Curé-Labelle / face au civique #1420,  45.691491, -73.908314,6,82810,0
82811,des Cèdres / de Neuville-en-Ferrain,  45.768634, -73.812294,6,82811,0
82812,des Cèdres / Beaupré,  45.769666, -73.810925,6,82812,0
82813,des Cèdres / des Sources,  45.771392, -73.807728,6,82813,0
82814,des Cèdres / des Supérieurs,  45.770454, -73.805720,6,82814,0
82815,des Cèdres / Clément,  45.769346, -73.803470,6,82815,0
82817,de Fontainebleau / de Richelieu,  45.660706, -73.809721,5,82817,1
82818,Sainte-Anne / 6e Avenue,  45.763945, -73.810300,6,82818,0
82819,Bouthillier / Montée Sanche,  45.627817, -73.824681,5,82819,0
82820,Céloron / du Commandant,  45.689007, -73.881366,6,82820,0
82821,Saint-Charles / Morris,  45.640531, -73.845456,6,82821,0
82823,de la Grande-Côte / Diane-Juster,  45.597977, -73.839742,5,82823,0
82829,Grande-Côte / devant la bibliothèque Guy-Bélisle,  45.561460, -73.886465,5,82829,0
82830,Turgeon / Desjardins Est,  45.632885, -73.832641,5,82830,0
82843,Desjardins Est / Vaudry (1),  45.634673, -73.829656,5,82843,0
82844,Desjardins Est / Vaudry (2),  45.634993, -73.829368,5,82844,0
82845,des Châteaux / d'Écouen,  45.655244, -73.801548,5,82845,0
82846,des Châteaux / d'Écouen,  45.655303, -73.801770,5,82846,0
82847,du Val-d'Ajol / Place de Toul,  45.672110, -73.796063,5,82847,0
82848,du Val-d'Ajol / Place de Toul,  45.671640, -73.796055,5,82848,0
82849,de la Grande-Côte / Principale,  45.604105, -73.836217,5,82849,0
82850,de la Grande-Côte / Principale,  45.603951, -73.836148,5,82850,0
82851,de la Grande-Côte / Willowtree,  45.619936, -73.810700,5,82851,0
82852,de la Grande-Côte / Westgate,  45.621149, -73.806760,5,82852,0
82853,de la Grande-Côte / Labelle,  45.623503, -73.803100,5,82853,0
82854,Côte de Terrebonne / de la Pommeraie,  45.673866, -73.749190,5,82854,0
82855,Côte de Terrebonne / de la Pommeraie,  45.674149, -73.749120,5,82855,0
82856,d'Annemasse / devant le Déco Découverte,  45.625725, -73.848394,5,82856,0
82857,du Chanoine-Lionel-Groulx / Duquet,  45.642252, -73.838871,5,82857,0
82858,Duquet / du Séminaire,  45.643532, -73.840291,5,82858,0
82859,Duquet / Ducharme,  45.645494, -73.843236,5,82859,0
82860,Duquet / du Séminaire,  45.643535, -73.840785,5,82860,0
82861,Vaudry / Brosseau,  45.633717, -73.822953,5,82861,0
82862,Montée Sanche / Perron,  45.629716, -73.827623,5,82862,0
82863,du Grand-Prix / du Biathlon,  45.649845, -73.884428,7,82863,0
82866,du Biathlon / du Grand-Prix,  45.649830, -73.884171,7,82866,0
82867,Côte de Terrebonne / Fidèle,  45.676016, -73.745294,5,82867,0
82868,Côte de Terrebonne / 4e Avenue,  45.675190, -73.747549,5,82868,0
82869,Lefrançois / face à l'externat Sacré-Coeur,  45.652117, -73.786673,5,82869,0
82870,des Vignobles / du Saint-Émilion,  45.654533, -73.785333,5,82870,0
82871,des Vignobles / du Sauvignon,  45.655490, -73.786815,5,82871,0
82872,des Vignobles / du Muscadet,  45.656700, -73.788647,5,82872,0
82873,des Vignobles / l'Ermitage,  45.657265, -73.788608,5,82873,0
82874,des Vignobles / des Charentes,  45.657358, -73.786081,5,82874,0
82875,des Vignobles / du Bourgogne,  45.656391, -73.784752,5,82875,0
82876,des Vignobles / Lefrançois,  45.654724, -73.782426,5,82876,0
82877,des Vignobles / du Champagne,  45.653781, -73.780959,5,82877,0
82878,des Vignobles / Roland-Durand,  45.652306, -73.778877,5,82878,0
82879,des Vignobles / du Champagne,  45.653683, -73.780324,5,82879,0
82880,des Vignobles / du Bourgogne,  45.656477, -73.784552,5,82880,0
82881,des Vignobles / des Charentes,  45.657337, -73.785869,5,82881,0
82882,des Vignobles / l'Ermitage,  45.657414, -73.788892,5,82882,0
82883,des Vignobles / du Muscadet,  45.656640, -73.788901,5,82883,0
82884,des Vignobles / du Sauvignon,  45.655502, -73.787171,5,82884,0
82885,des Vignobles / du Saint-Émilion,  45.654002, -73.784804,5,82885,0
82886,des Vignobles / Lefrançois (2),  45.653661, -73.783912,5,82886,0
82887,Lefrançois / devant l'externat Sacré-Coeur,  45.652155, -73.786721,5,82887,0
82893,de la Côte-Saint-Louis Est / de Gatineau,  45.662714, -73.843938,6,82893,0
82894,de la Côte-Saint-Louis Est / de Gatineau,  45.662943, -73.844280,6,82894,0
82895,du Parc / Hamilton,  45.627645, -73.810201,5,82895,0
82896,du Parc / de la Clairière,  45.626516, -73.811958,5,82896,0
82897,Northview / Westgate Est,  45.627245, -73.814514,5,82897,0
82898,Northview / de l'Obier,  45.625819, -73.815596,5,82898,0
82899,Willowtree / Forestwood,  45.623935, -73.815927,5,82899,0
82900,Forestwood / Willowtree,  45.621924, -73.812297,5,82900,0
82901,Willowtree / de la Grande-Côte,  45.620108, -73.810451,5,82901,0
82902,Florian / Willowdale,  45.632148, -73.798866,5,82902,0
82903,Florian / Chapleau,  45.633399, -73.800800,5,82903,0
82904,Florian / Dufferin,  45.635231, -73.803648,5,82904,0
82905,Dufferin / Edgewood,  45.634229, -73.805420,5,82905,0
82907,Chapleau / Remembrance,  45.632099, -73.802349,5,82907,0
82911,Willowtree / de la Grande-Côte,  45.620208, -73.809964,5,82911,0
82912,Willowtree / Forestwood,  45.622162, -73.812031,5,82912,0
82913,Forestwood / Willowtree,  45.623694, -73.815886,5,82913,0
82914,Northview / de l'Obier,  45.625231, -73.815237,5,82914,0
82915,Northview / Westgate Est,  45.626866, -73.814531,5,82915,0
82916,de la Clairière / du Parc,  45.626549, -73.812287,5,82916,0
82917,du Parc / Hamilton,  45.627565, -73.810156,5,82917,0
82918,du Domaine / Sherbrooke,  45.647157, -73.837836,6,82918,0
82919,du Domaine / Caron,  45.647699, -73.836201,6,82919,0
82920,du Domaine / de la Crique,  45.649078, -73.832367,6,82920,0
82921,du Domaine / face à la polyvalente Sainte-Thérèse,  45.648244, -73.827669,6,82921,0
82922,du Domaine / Marceau,  45.646886, -73.826420,6,82922,0
82923,René-A.-Robert / devant le civique #181,  45.645934, -73.823396,6,82923,0
82924,René-A.-Robert / d'Annecy,  45.645784, -73.820807,6,82924,0
82925,René-A.-Robert / Blainville Est,  45.642103, -73.816753,6,82925,0
82926,de Valcourt / de Bernières,  45.644680, -73.814708,6,82926,0
82927,de Valcourt / d'Annecy,  45.647206, -73.818525,6,82927,0
82928,d'Annecy / de Varennes,  45.649237, -73.818183,6,82928,0
82929,d'Annecy / Dubreuil,  45.650884, -73.816287,6,82929,0
82930,d'Annecy / de la Renaissance,  45.652969, -73.815644,6,82930,0
82931,de la Renaissance / Jeanne-Bonfond,  45.653374, -73.813998,6,82931,0
82932,de la Renaissance / Nicolas-Manthet,  45.652885, -73.812233,6,82932,0
82933,de la Renaissance / Anita-Michel,  45.651669, -73.810465,6,82933,0
82934,de la Renaissance / du Bas-de-Sainte-Thérèse,  45.650435, -73.808026,6,82934,0
82935,du Bas-de-Sainte-Thérèse / Montée Oudart,  45.651244, -73.804822,6,82935,0
82936,du Bas-de-Sainte-Thérèse / Montée Oudart,  45.651402, -73.804700,6,82936,0
82937,du Bas-de-Sainte-Thérèse / de la Renaissance,  45.650558, -73.807834,6,82937,0
82938,d'Annecy / de Valcourt,  45.647229, -73.819035,6,82938,0
82939,de Valcourt / de Bernières,  45.644716, -73.815050,6,82939,0
82940,de Valcourt / du Bas-de-Sainte-Thérèse,  45.643795, -73.813790,6,82940,0
82941,du Bas-de-Sainte-Thérèse / René-A.-Robert,  45.642148, -73.816294,6,82941,0
82942,René-A.-Robert / face au Rona,  45.642811, -73.816887,6,82942,0
82943,René-A.-Robert / d'Annecy,  45.645468, -73.819648,6,82943,0
82944,Remenbrance / Chapleau,  45.632207, -73.802191,5,82944,0
82945,du Grand-Prix / de Silverstone,  45.644409, -73.878073,7,82945,0
82946,de la Côte-Saint-Louis Est / des Lotus,  45.658360, -73.844025,6,82946,0
82947,de la Côte-Saint-Louis Est / des Lotus,  45.658752, -73.844525,6,82947,0
82948,de la Grande-Allée / Bougainville,  45.627989, -73.857510,5,82948,0
82949,de la Grande-Allée / Montcalm,  45.627990, -73.856734,5,82949,0
82950,Duquet / du Chanoine-Lionel-Groulx,  45.642406, -73.839017,5,82950,0
82951,Dubois / Sénécal,  45.637546, -73.835593,5,82951,0
82953,Duquet / Beauchamp,  45.641701, -73.838063,5,82953,0
82954,Sénécal / Dubois,  45.637821, -73.835550,5,82954,0
82956,du Curé-Labelle / devant le civique #35,  45.640309, -73.829593,5,82956,0
82958,de Valcourt / d'Annecy,  45.646959, -73.818255,6,82958,0
82959,Sénécal / Blainville Est,  45.638880, -73.835797,5,82959,0
82960,de la Grande-Côte / Hubert-Aquin,  45.600925, -73.837835,5,82960,0
82961,de la Grande-Côte / Hubert-Aquin,  45.601172, -73.837856,5,82961,0
82962,Montée Gagnon / Armand-Bombardier,  45.680678, -73.784068,5,82962,0
82963,Montée Gagnon / Armand-Bombardier,  45.680597, -73.783632,5,82963,0
82964,de la Grande-Côte / Constant,  45.611692, -73.829290,5,82964,0
82982,Dagenais / Blainville Est,  45.639127, -73.835967,5,82982,0
82987,Desjardins Ouest / Turgeon,  45.632885, -73.832767,5,82987,0
82988,Dubois / Turgeon,  45.637369, -73.838650,5,82988,0
82993,Montée Gagnon / Marie-Josée,  45.695399, -73.805854,6,82993,0
82997,de la Grande-Allée / des Grandes-Tourelles,  45.624478, -73.852310,5,82997,0
82998,de la Grande-Allée / des Grandes-Tourelles,  45.624441, -73.852730,5,82998,0
83000,de la Grande-Allée / de la Côte Sud,  45.638865, -73.873131,6,83000,0
83001,de la Grande-Allée / La Fayette Ouest,  45.636455, -73.869677,6,83001,0
83002,de la Grande-Allée / Lavoisier,  45.633169, -73.865043,5,83002,0
83003,Voie d'accès Curé-Boivin / de la Grande-Côte,  45.615679, -73.819003,5,83003,0
83004,de la Grande-Allée / de la Côte Sud,  45.638491, -73.872015,6,83004,0
83005,Blainville Ouest / De Roussy,  45.639150, -73.848849,6,83005,0
83006,Blainville Ouest / Sicard,  45.639779, -73.853684,6,83006,0
83007,de la Côte Sud / Ambroise-Lafortune,  45.639544, -73.861197,6,83007,0
83008,la Vérendrye / Alfred-Laliberté,  45.637945, -73.859357,6,83008,0
83009,Alfred-Laliberté / La Fayette Est,  45.637517, -73.867829,6,83009,0
83010,La Fayette Est / de la Grande-Allée,  45.636661, -73.869269,6,83010,0
83011,Florian / Willowdale,  45.632182, -73.799194,5,83011,0
83012,Pacific / Lacas,  45.636796, -73.803378,5,83012,0
83013,Lacas / de Rosemère,  45.638133, -73.803181,5,83013,0
83014,de Rosemère / Westward,  45.638791, -73.805695,5,83014,0
83015,de Rosemère / de Normandie,  45.640370, -73.808081,5,83015,0
83016,de l'Érablière / des Laurentides,  45.679053, -73.778962,5,83016,0
83018,Corona / de la Grande-Côte,  45.631072, -73.795893,5,83018,0
83019,de L'Érablière / des Bois-Francs,  45.679957, -73.777610,5,83019,1
83020,Alexis-Carrel / Aragon,  45.619381, -73.842378,5,83020,1
83021,Alexandre-le-Grand / Germaine-Guèvremont,  45.622957, -73.839101,5,83021,1
83022,Montée Sanche / des Entreprises,  45.627611, -73.824729,5,83022,0
83023,des Entreprises / de Galais,  45.626455, -73.827773,5,83023,0
83024,des Entreprises / du Curé-Boivin,  45.625537, -73.833204,5,83024,0
83025,du Curé-Boivin / Provencher,  45.620403, -73.825729,5,83025,0
83026,Provencher / Pasteur,  45.621212, -73.824265,5,83026,0
83027,Provencher / Pesant,  45.622760, -73.822285,5,83027,0
83028,Provencher / Montée Sanche,  45.624443, -73.820014,5,83028,0
83030,du Faubourg / devant le Super C,  45.623300, -73.849560,5,83030,0
83031,des Grandes-Tourelles / face à la Cage aux Sports,  45.626108, -73.850444,5,83031,0
83032,des Grandes-Tourelles / St-Jacques,  45.625089, -73.851841,5,83032,0
83033,Lionel-Bertrand / devant le civique #1609,  45.621708, -73.853935,5,83033,0
83034,Lionel-Bertrand / Jean-Charles-Bonenfant,  45.615612, -73.853363,5,83034,0
83035,Bourassa / de Bourgogne,  45.620954, -73.858312,5,83035,0
83036,Bourassa / Frédéric-Back,  45.622914, -73.859514,5,83036,0
83037,Bourassa / Baudelaire,  45.624072, -73.858162,5,83037,0
83038,Bourassa / de la Grande-Allée,  45.626225, -73.855155,5,83038,0
83040,de la Côte-Saint-Louis Est / des Asters,  45.669249, -73.844106,6,83040,0
83041,Paradis / Beechwood,  45.646890, -73.786931,5,83041,0
83042,Alexandre-le-Grand / Anquetil,  45.622193, -73.843471,5,83042,1
83043,Alain-Grandbois / Garneau,  45.618797, -73.832672,5,83043,1
83044,6e Avenue / de Pierrefontaine,  45.617611, -73.818578,5,83044,1
83045,du Curé-Boivin / de Pierrefontaine,  45.618864, -73.823120,5,83045,1
83046,du Curé-Boivin / Provencher,  45.620386, -73.825374,5,83046,1
83047,6e Avenue / de Pierrefontaine,  45.617571, -73.818206,5,83047,1
83048,du Curé-Boivin / Pierrefontaine,  45.619137, -73.822805,5,83048,1
83050,de Nancy / d'Orléans,  45.662835, -73.772344,5,83050,0
83051,de Longuyon / Place de Strasbourg,  45.677526, -73.794997,5,83051,0
83052,54e Avenue Est / du Curé-Labelle,  45.669459, -73.872123,6,83052,1
83053,Simon-Lussier / de la Seigneurie Est,  45.668682, -73.868406,6,83053,1
83054,D'Aubervilliers / du Val-d'Oise,  45.681917, -73.742560,5,83054,1
83058,de Rambervillers / de Gaulle,  45.679443, -73.792181,5,83058,1
83059,René-A.-Robert / Libersan,  45.645685, -73.830463,6,83059,1
83060,Alexandre-le-Grand / Aristote,  45.621817, -73.843495,5,83060,1
83061,Alexandre-le-Grand / Germaine-Guèvremont,  45.622932, -73.839696,5,83061,1
83062,Alexis-Carrel / Aragon,  45.619728, -73.842453,5,83062,1
83063,de Châteauneuf / Cadoret,  45.618817, -73.837578,5,83063,1
83065,René-A.-Robert / Caron,  45.646044, -73.830327,6,83065,1
83066,Blainville Est / Mainville,  45.639242, -73.824701,6,83066,1
83070,de Castillo / de Fontainebleau,  45.663964, -73.807224,6,83070,1
83072,de l'Érablière / de l'Érablière,  45.678924, -73.771598,6,83072,1
83073,René-A._Robert / Saint-Pierre,  45.645806, -73.826595,6,83073,1
83074,René-A.-Robert / du Domaine,  45.646294, -73.825793,6,83074,1
83075,de la Rivière-Cachée / Bourassa,  45.619925, -73.856713,5,83075,0
83078,des Lotus / des Nénuphars,  45.660152, -73.847785,6,83078,1
83080,du Curé-Boivin / 6e Avenue,  45.619021, -73.820394,5,83080,1
83082,6e Avenue / du Curé-Boivin,  45.619085, -73.820105,5,83082,1
83083,Bouthillier / face au Canadian Tire,  45.628796, -73.822935,5,83083,0
83085,du Plan-Bouchard / devant le parc de Blainville,  45.682326, -73.871119,6,83085,0
83086,du Plan-Bouchard / de la Mairie,  45.680774, -73.873578,6,83086,0
83087,de la Mairie / du Général-Triquet,  45.678189, -73.870089,6,83087,0
83088,de la Mairie / du Général-Allard,  45.676635, -73.867975,6,83088,0
83089,de la Mairie / De Tracy,  45.675245, -73.866017,6,83089,0
83090,de la Seigneurie Est / du Curé-Labelle,  45.667372, -73.870134,6,83090,0
83091,de la Seigneurie Ouest / face au BMR,  45.665542, -73.872577,6,83091,0
83092,de la Seigneurie Ouest / face au Acura Plus,  45.664094, -73.875147,6,83092,0
83093,de la Seigneurie Ouest / Jacques-St-André,  45.663484, -73.877792,6,83093,0
83094,de la Seigneurie Ouest / devant le civique #370,  45.662319, -73.881149,6,83094,0
83095,Michèle-Bohec / face au Canadian Tire,  45.662057, -73.882714,6,83095,0
83096,Michèle-Bohec / Roger-Boisvert,  45.663469, -73.886937,6,83096,0
83097,Roger-Boisvert / Ernest-Bourque,  45.665065, -73.886565,6,83097,0
83098,Ernest-Bourque / Alain,  45.667234, -73.892214,6,83098,0
83099,Ernest-Bourque / Réal-Benoît,  45.667924, -73.894096,6,83099,0
83100,Ernest-Bourque / Gilles-Vigneault,  45.669222, -73.895464,6,83100,0
83101,Gilles-Vigneault / Antonine-Maillet,  45.670202, -73.894178,6,83101,0
83102,Gilles-Vigneault / Francoise-Loranger,  45.671487, -73.892532,6,83102,0
83103,Gilles-Vigneault / Anne-Hébert,  45.672883, -73.891979,6,83103,0
83104,Gilles-Vigneault / 84e Avenue Ouest,  45.674049, -73.892979,6,83104,0
83105,du Curé-Labelle / René-A.-Robert,  45.643520, -73.834303,5,83105,0
83106,de la Grande-Côte / Tylee,  45.626135, -73.800880,5,83106,0
83107,de la Grande-Côte / Tylee,  45.626294, -73.800890,5,83107,0
83108,Ambroise-Lafortune / Doris-Lussier,  45.641264, -73.867382,6,83108,0
83109,Ambroise-Lafortune / de la Grande-Allée,  45.640159, -73.874040,6,83109,0
83110,des Grandes-Tourelles / devant le complexe sportif,  45.632027, -73.859170,5,83110,0
83111,des Grandes-Tourelles / devant le civique #3625,  45.632641, -73.853361,5,83111,0
83112,des Grandes-Tourelles / face au Costco,  45.631288, -73.851193,5,83112,0
83113,des Grandes-Tourelles / St-Antoine,  45.629318, -73.848231,5,83113,0
83114,des Grandes-Tourelles / St-Honoré,  45.627682, -73.848118,5,83114,0
83115,de la Rivière-Cachée / Lionel-Bertrand,  45.621858, -73.854309,5,83115,0
83120,de la Côte-Saint-Louis Est / des Asters,  45.669378, -73.844232,6,83120,0
83121,Mayer / Saint-Charles,  45.642177, -73.855224,6,83121,0
83135,De Gaulle / René-d'Anjou,  45.675163, -73.792463,5,83135,0
83136,De Gaulle / de Longuyon,  45.677744, -73.792223,5,83136,0
83137,de Longuyon / Place de Strasbourg,  45.677788, -73.794986,5,83137,0
83138,de Longuyon / René-d'Anjou,  45.674990, -73.796978,5,83138,0
83139,René-d'Anjou / Place de Saint-Dié,  45.674892, -73.795431,5,83139,0
83140,René-d'Anjou / de Longuyon,  45.675031, -73.796692,5,83140,0
83141,de Reims / de Mousson,  45.671655, -73.784272,5,83141,0
83142,de Reims / de Ronchamp,  45.670109, -73.782276,5,83142,0
83143,de Reims / De Gaulle,  45.667540, -73.783447,5,83143,0
83144,de Reims / De Gaulle,  45.667296, -73.783242,5,83144,0
83145,de Reims / de Ronchamp,  45.669932, -73.781674,5,83145,0
83146,de Reims / de Mousson,  45.672087, -73.784387,5,83146,0
83147,de Reims / de Vignory,  45.672752, -73.785404,5,83147,0
83148,des Vignobles / Lefrançois (1),  45.654612, -73.781639,5,83148,0
83151,du Curé-Labelle / J.-A.-Bombardier,  45.695716, -73.914643,7,83151,0
83152,de la Grande-Côte / Bellerive,  45.652244, -73.774224,5,83152,0
83153,de la Grande-Côte / Bellerive,  45.652366, -73.774215,5,83153,0
83154,Bas-de-Sainte-Thérèse / devant l'école Montessori,  45.651880, -73.799011,5,83154,0
83155,Blainville Est / Ouimet,  45.640408, -73.819151,6,83155,0
83156,des Cèdres / des Saisons,  45.761085, -73.823527,6,83156,0
83157,des Cèdres / Therrien,  45.762414, -73.821274,6,83157,0
83160,Des Laurentides / Des Bois-Francs,  45.678608, -73.775699,5,83160,0
83161,Roland-Durand / Pomerol,  45.651979, -73.779881,5,83161,0
83162,Blainville E / de la Rocade,  45.640612, -73.818968,6,83162,0
83163,René-d'Anjou / Place de Saint-Dié,  45.675113, -73.795106,5,83163,1
83165,des Cèdres / Guénette,  45.768279, -73.800316,6,83165,0
83166,Guénette / 11e Avenue,  45.767346, -73.801185,6,83166,0
83167,Guénette / 9e Avenue,  45.766261, -73.802337,6,83167,0
83168,Guénette / du Boisé,  45.764149, -73.804371,6,83168,0
83169,Guénette / 6e Avenue,  45.762252, -73.806209,6,83169,0
83170,6e Avenue / Forget,  45.762583, -73.807236,6,83170,0
83171,6e Avenue / Clément,  45.763315, -73.809027,6,83171,0
83176,Guénette / du Boisé,  45.763900, -73.804344,6,83176,0
83177,Guénette / 9e Avenue,  45.765906, -73.802355,6,83177,0
83178,Guénette / 11e Avenue,  45.766993, -73.801207,6,83178,0
83179,Guénette / des Cèdres,  45.768154, -73.800048,6,83179,0
83180,des Cèdres / Clément,  45.769456, -73.803057,6,83180,0
83181,des Cèdres / des Supérieurs,  45.770454, -73.805349,6,83181,0
83182,des Cèdres / des Sources,  45.771546, -73.807388,6,83182,0
83183,des Cèdres / Beaupré,  45.769941, -73.810891,6,83183,0
83184,des Cèdres / de Neuville-en-Ferrain,  45.768838, -73.812319,6,83184,0
83185,des Cèdres / Sainte-Anne,  45.767016, -73.814798,6,83185,0
83186,des Cèdres / Champagne,  45.765182, -73.817299,6,83186,0
83194,des Entreprises / face au IGA,  45.626974, -73.825692,5,83194,0
83195,des Entreprises / devant le IGA,  45.626800, -73.825595,5,83195,0
83197,des Cèdres / des Saisons,  45.761268, -73.823478,6,83197,0
83203,Hubert-Gratton / Maurice-Lecompte,  45.653776, -73.805879,6,83203,1
83204,Maurice-Lecompte / Hubert-Gratton,  45.653670, -73.805702,6,83204,1
83210,5e Avenue / Sainte-Anne,  45.763091, -73.811104,6,83210,0
83211,5e Avenue / Guénette,  45.761602, -73.806832,6,83211,0
83212,des Cèdres / 3e Avenue,  45.764001, -73.819128,6,83212,0
83213,des Cèdres / Therrien,  45.762720, -73.821172,6,83213,0
83214,des Cèdres / 3e Avenue,  45.763728, -73.819175,6,83214,0
83215,des Cèdres / Champagne,  45.764879, -73.817355,6,83215,0
83218,Provencher / Pasteur,  45.621595, -73.824292,5,83218,0
83219,Montée Gagnon / de l'Aiglon,  45.687584, -73.794194,6,83219,0
83220,Montée Gagnon / de l'Aiglon,  45.687607, -73.794587,6,83220,0
83222,Guy / Saint-Roch,  45.700650, -73.803111,6,83222,0
83223,Montée Gagnon / de Versailles,  45.693441, -73.802934,6,83223,0
83224,Montée Gagnon / de Versailles,  45.693478, -73.803317,6,83224,0
83225,Blainville Ouest / Deschambault,  45.639352, -73.846635,6,83225,0
83226,Arthur-Sauvé / Grignon,  45.570802, -73.911484,5,83226,0
83227,du Curé-Labelle / du Boisé à de la Paix,  45.739975, -73.970923,7,83227,0
83228,du Curé-Labelle / de la Paix à du Boisé,  45.732344, -73.964706,7,83228,0
83229,Montée Gagnon / Institut Archambault à Rang Lepage,  45.741678, -73.825447,6,83229,0
83230,Montée Gagnon / Rang Lepage à Saint-Roch,  45.723738, -73.823017,6,83230,0
83231,Côte-Saint-Louis Est / Mtée Gagnon à Paul-Albert,  45.691583, -73.817080,6,83231,0
83232,Côte-Saint-Louis Est / Paul-Albert à Mtée Gagnon,  45.684207, -73.829262,6,83232,0
83233,Montée Gagnon / Saint-Roch à Rang Lepage,  45.699875, -73.812849,6,83233,0
83234,Montée Gagnon / Rang Lepage à Institut Archambault,  45.734555, -73.822974,6,83234,0
83235,Saint-Roch / Diane à Camus - SUR DEMANDE,  45.700929, -73.797653,6,83235,0
83236,Saint-Roch / Camus à Diane - SUR DEMANDE,  45.700803, -73.797632,6,83236,0
83237,du Curé-Boivin / devant le civique #585,  45.622818, -73.829187,5,83237,0
83238,du Curé-Boivin / devant le civique #610,  45.622476, -73.829010,5,83238,0
83256,Céloron / Georges-Hériot,  45.696470, -73.909146,6,83256,0
83257,Sainte-Anne / devant le civique #30,  45.751730, -73.822716,6,83257,0
83258,Sainte-Anne / devant le civique #19,  45.751988, -73.822816,6,83258,0
83272,Northcote / Rosemère,  45.637993, -73.801482,5,83272,0
83273,Lionel-Bertrand / devant le civique #1755,  45.618842, -73.852313,5,83273,1
83275,Cégep Régional de Lanaudière à Terrebonne,  45.722102, -73.705523,6,83275,0
83276,de la Côte Saint-Louis / Legault,  45.673415, -73.843021,6,83276,0
83277,Côte Saint-Louis / Legault,  45.673632, -73.843080,6,83277,0
83283,des Pommetiers / Gagnon,  45.674105, -73.773802,5,83283,0
83289,de Rochefort / de Chaumont,  45.663672, -73.827738,6,83289,0
83290,de Rochefort / de Tarascon,  45.662309, -73.830206,6,83290,0
83291,de la Renaissance / de Rochefort,  45.661252, -73.831788,6,83291,0
83293,de Matagami / de Gatineau,  45.660534, -73.835937,6,83293,0
83294,de Fontenelle / de Matagami,  45.658519, -73.834026,6,83294,0
83295,de Fontenelle / de Lanoraie,  45.656501, -73.830302,6,83295,0
83297,de Fontenelle / de Lanoraie,  45.656639, -73.830475,6,83297,0
83298,de Fontenelle / de Matagami,  45.658419, -73.833929,6,83298,0
83299,de Gatineau / de la Sarre,  45.660617, -73.835748,6,83299,0
83301,34e Avenue / du Cure-Labelle,  45.658916, -73.857621,6,83301,0
83306,de la Cote-Saint-Louis Ouest / Chenier,  45.650521, -73.846969,6,83306,0
83307,de la Cote-Saint-Louis / Alderic-Huot,  45.648305, -73.850390,6,83307,0
83308,des Violettes / Chapleau,  45.644408, -73.850887,6,83308,0
83309,Hemlock / Sherbrooke,  45.649754, -73.833681,6,83309,0
83312,des Chênes / des Amadouviers,  45.658560, -73.840558,6,83312,0
83316,Hemlock / Sherbrooke,  45.649871, -73.833929,6,83316,0
83318,de la Cote-Saint-Louis / Alderic-Huot,  45.648019, -73.850356,6,83318,0
83320,35e Avenue Est / 33e Avenue Est,  45.660885, -73.852323,6,83320,0
83321,37e Avenue Est / Maurice-Mayer,  45.662856, -73.857958,6,83321,0
83322,Alcide-Sauve / 43e Avenue Est,  45.667016, -73.859866,6,83322,0
83324,Corona / Molini,  45.634218, -73.800787,5,83324,0
83325,de la Grande-Côte / Saint-Laurent,  45.642896, -73.783960,5,83325,0
83326,Corona / Molini,  45.634174, -73.800494,5,83326,0
83335,Adolphe-Chapleau / 58e Avenue,  45.656681, -73.770457,5,83335,0
83336,Adolphe-Chapleau / 53e Avenue,  45.658978, -73.767461,5,83336,0
83337,Adolphe-Chapleau / 53e Avenue,  45.659197, -73.767485,5,83337,0
83338,Adolphe-Chapleau / 58e Avenue,  45.656902, -73.770478,5,83338,0
83348,Sicard / Mayer,  45.641325, -73.856235,6,83348,0
83350,des Myosotis / sentier pédestre,  45.643794, -73.853515,6,83350,0
83351,des Myosotis / Mayer,  45.643988, -73.854871,6,83351,0
83353,des Girofles / des Violettes,  45.645953, -73.855007,6,83353,0
83356,de la Cote-Saint-Louis / des Girofles,  45.646730, -73.855350,6,83356,0
83357,des Girofles / des Violettes,  45.645947, -73.855184,6,83357,0
83360,des Myosotis / sentier pedestre,  45.643649, -73.853519,6,83360,0
83362,Chapleau / Saint-Charles,  45.641996, -73.852394,6,83362,0
83363,Mayer / Sicard,  45.641441, -73.856359,6,83363,0
83366,des Bois-Francs / de l'Erabliere,  45.680032, -73.777431,5,83366,0
83367,de l'Erabliere / des Peupliers,  45.681024, -73.776376,5,83367,0
83368,du Sablon face au numéro civique 171,  45.683373, -73.776477,5,83368,0
83369,du Sablon / de l'Erabliere,  45.680997, -73.774491,5,83369,0
83373,Napoleon / Blanchard,  45.632893, -73.839100,5,83373,0
83374,de Gatineau / de Matane,  45.659442, -73.833029,6,83374,0
83375,de Rochefort / de la Renaissance,  45.661381, -73.831908,6,83375,0
83376,de Rochefort / de Tarascon,  45.662526, -73.830138,6,83376,0
83377,de Rochefort / de Chaumont,  45.663877, -73.827625,6,83377,0
83378,de Fontainebleau / de Franchimont,  45.660483, -73.821054,6,83378,0
83379,de Fontainbleau / de Montebello,  45.657739, -73.815553,6,83379,0
83383,de la Renaissance / Yvon-Cousineau,  45.651233, -73.809610,6,83383,0
83385,Ambroise-Filion / Oudart,  45.651936, -73.805134,6,83385,0
83387,Bas-Sainte-Thérèse / Paul-Bergeron,  45.653041, -73.794231,5,83387,0
83393,Lefrançois / des Vignobles (1),  45.653554, -73.783683,5,83393,0
83394,Ambroise-Filion / Oudart,  45.652095, -73.805289,6,83394,0
83397,de la Renaissance / Yvon-Cousineau,  45.651271, -73.809918,6,83397,0
83401,Alcide-Sauvé / 43e Avenue E,  45.668472, -73.861951,6,83401,0
83404,Roland-Durand / Pomerol,  45.651791, -73.780043,5,83404,0
83405,des Roseaux / des Iris,  45.668135, -73.847823,6,83405,0
83407,Rene-A. Robert / Blainville E,  45.642017, -73.816190,6,83407,0
83408,Greenwood / des Chênes,  45.651658, -73.834877,6,83408,0
83409,des Bolets / de la côte St-Louis E,  45.656825, -73.844107,6,83409,0
83410,des Iris / des Prêles,  45.664424, -73.850897,6,83410,0
83412,de Fontainebleau / de Montauban,  45.667404, -73.810932,5,83412,0
83414,de Longuyon / de Gaulle,  45.677854, -73.792567,5,83414,0
83416,de Montauban / de Fontainebleau,  45.667502, -73.810771,5,83416,0
83417,des Lotus / des Nenuphars,  45.660017, -73.847422,6,83417,0
83418,des Iris des Preles,  45.664217, -73.850953,6,83418,0
83419,des Roseaux / des Iris,  45.668222, -73.847992,6,83419,0
83423,de Fontenelle / de Magog,  45.658086, -73.832094,6,83423,0
83425,Grande-Allé / Côte-Nord,  45.642285, -73.877482,7,83425,0
83426,Grande-Allée / Côte-Nord,  45.643345, -73.878714,7,83426,0
83428,Edgewood / Dufferin,  45.634037, -73.805354,5,83428,0
83429,des Bolets / de la Côte-Saint-Louis,  45.656696, -73.844027,6,83429,0
83430,des Chênes / Greenwood,  45.651811, -73.834854,6,83430,0
83432,de Hombourg / Rene-d'Anjou,  45.672275, -73.802144,5,83432,1
83433,de la Cote-Saint-Louis Ouest / Chenier,  45.650305, -73.847033,6,83433,1
83440,Montée Sanche / de la Promenade (1),  45.626052, -73.822461,5,83440,1
83441,Montée Sanche / Provencher,  45.624571, -73.820245,5,83441,1
83444,des Mélèzes / des Pins,  45.679017, -73.773918,6,83444,1
83445,Des Bois-Francs / Des Laurentides,  45.678738, -73.775503,5,83445,1
83446,des Mélèzes / dees Mélèzes,  45.678989, -73.774176,6,83446,1
83447,des Frênes / des Bois-Francs,  45.679787, -73.776996,6,83447,1
83449,6e Avenue / de la Grande-Côte,  45.616712, -73.817263,5,83449,1
83452,Napoléon / Waddell,  45.634530, -73.836466,5,83452,1
83453,Napoléon / Place Casavant,  45.634764, -73.836419,5,83453,1
83500,de Vignory / de Granpre,  45.673483, -73.784669,5,83500,0
83502,de Mey / de Bruyeres,  45.681819, -73.787964,5,83502,0
83503,Fraser / de Vignory,  45.677806, -73.783733,5,83503,0
83505,Lacas / Pacific,  45.636931, -73.803302,5,83505,0
83705,des Laurentides / Saint-Martin Est,  45.581762, -73.704863,3,83705,0
83706,des Laurentides / Saint-Martin Ouest,  45.582176, -73.706212,3,83706,0
83707,des Laurentides / Sainte-Rose,  45.630315, -73.752255,3,83707,0
83708,des Laurentides / Sainte-Rose,  45.630476, -73.752727,3,83708,0
83709,des Laurentides / Saint-Elzéar Est,  45.603017, -73.728255,3,83709,0
83710,des Laurentides / Saint-Elzéar Est,  45.603138, -73.728686,3,83710,0
83713,de Bruyères / de Mey,  45.681699, -73.788147,5,83713,1
83714,de Chambéry / de Chanaz,  45.683670, -73.799600,6,83714,1
83715,du Climont / de Lachalade,  45.678389, -73.790893,5,83715,1
83731,des Laurentides / face à la Place Vimont,  45.597982, -73.722955,3,83731,0
83732,des Laurentides / devant la Place Vimont,  45.598113, -73.723439,3,83732,0
83990,Gare Ste-Dorothée (Avenue des Bois),  45.526028, -73.861813,3,83990,1
83991,Terminus Côte-Vertu (Quai 22),  45.513474, -73.683342,1,83991,1
83992,Stationnement incitatif Avenue des Bois,  45.547387, -73.827229,3,83992,1
84035,Guy / David,  45.703074, -73.803756,6,84035,0
84036,Guy / du Milan,  45.705791, -73.804444,6,84036,0
84037,du Milan / Bigras,  45.705563, -73.807732,6,84037,0
84038,Montée Gagnon / Marie-Josée,  45.695529, -73.806501,6,84038,0
84119,Hector-Maisonneuve / face au 12,  45.651679, -73.796794,5,84119,1
84228,Érablière / Haute-Rive,  45.678806, -73.771712,6,84228,1
84254,Lamothe / Moïse-Proulx,  45.697911, -73.783552,6,84254,0
84255,Moïse-Proulx / Beauchemin,  45.696829, -73.784839,6,84255,0
84256,du Goéland / Marc,  45.706366, -73.812165,6,84256,0
84258,Marc / Adrien,  45.704781, -73.814663,6,84258,0
84310,Moïse-Proulx / Lamothe,  45.697758, -73.783299,6,84310,0
84313,de Gaulle / de Longuyon,  45.677984, -73.792477,5,84313,0
84314,Beauchemin / Moïse-Proulx,  45.696695, -73.784721,6,84314,1
84966,Côte de Terrebonne / George-VI,  45.676571, -73.744131,5,84966,0
84967,Côte de Terrebonne / 4e Avenue,  45.674946, -73.747552,5,84967,0
85423,Desjardins Est / devant le ÉconoMax,  45.634849, -73.822855,5,85423,0
85503,Rang Saint-François / Johanne,  45.687316, -73.784435,6,85503,0
85504,Johanne / Paul-Cézanne,  45.690183, -73.787621,6,85504,0
85505,Johanne / Jean-Paul-Riopelle,  45.692670, -73.791076,6,85505,0
85506,Johanne / Marie-Josée,  45.698002, -73.798398,6,85506,0
85508,Saint-Roch / Diane,  45.701264, -73.792316,6,85508,0
85509,Saint-Roch / Lamothe,  45.701598, -73.788500,6,85509,0
85510,Saint-Roch / Camus,  45.700471, -73.801624,6,85510,0
85511,Saint-Roch / Diane,  45.701469, -73.792058,6,85511,0
85514,Johanne / Jean-Paul-Riopelle,  45.692720, -73.791436,6,85514,0
85515,Johanne / Paul-Cézanne,  45.690239, -73.788109,6,85515,0
85516,Johanne / Rang Saint-François,  45.687716, -73.784591,6,85516,0
85517,Rang Saint-François / Montée Gagnon,  45.684161, -73.788868,5,85517,0
85519,Lamothe / Saint-Roch,  45.701610, -73.788258,6,85519,1
85529,Rang Saint-François / Boisvert,  45.685557, -73.787161,6,85529,0
85530,Rang Saint-François / Boisvert,  45.684947, -73.787308,6,85530,0
85532,Saint-Roch / Camus,  45.700632, -73.801406,6,85532,0
85533,Marie-Josée / Henri-Julien,  45.696443, -73.803441,6,85533,0
85534,Marie-Josée / Alain,  45.696660, -73.800407,6,85534,0
85542,Marie-Josée / Alain,  45.696889, -73.800218,6,85542,0
85543,Marie-Josée / Henri-Julien,  45.696646, -73.802934,6,85543,0
85544,Marie-Josée / Montée Gagnon,  45.695696, -73.806124,6,85544,0
85545,Marc / Adrien,  45.704799, -73.814425,6,85545,0
85546,Marc / du Goéland,  45.706365, -73.812407,6,85546,0
85547,Bigras / du Milan,  45.705540, -73.807960,6,85547,0
85548,du Milan / Guy,  45.705836, -73.804726,6,85548,0
85549,Guy / David,  45.703257, -73.803993,6,85549,0
85550,Guy / Saint-Roch,  45.700472, -73.803270,6,85550,0
85551,Marie-Josée / Johanne,  45.697884, -73.798576,6,85551,0
85778,Johanne / Paul-Émile-Borduas,  45.694954, -73.794212,6,85778,0
85779,Johanne / Paul-Émile-Borduas,  45.694977, -73.794583,6,85779,0
85880,Institut Archambault (1er arrêt),  45.743435, -73.846139,6,85880,0
85881,Gibson / Montée Gagnon,  45.743118, -73.825878,6,85881,0
85882,Vaudry / Brosseau,  45.633914, -73.823056,5,85882,0
85883,Vaudry / Saint-Jacques,  45.633650, -73.827599,5,85883,0
86001,de l'Église / Route 344,  45.528932, -74.206726,8,86001,1
86002,René-Lévesque / face au civique #11,  45.527553, -74.203575,8,86002,1
86003,Saint-Placide / des Bécassines (Stat. incitatif),  45.527951, -74.200292,8,86003,1
86004,Saint-Placide / devant le civique #1735,  45.528372, -74.196210,8,86004,1
86005,Route 344 / devant le civique #890,  45.526968, -74.174989,8,86005,1
86006,de la Pointe-aux-Anglais / devant le civique #383,  45.509838, -74.168804,8,86006,1
86007,Route 344 / Guy-Racicot,  45.511747, -74.157771,7,86007,1
86008,du Paquebot / Guy-Racicot,  45.502513, -74.168214,7,86008,1
86009,du Voilier / du Timonier,  45.505962, -74.165755,7,86009,1
86010,Sainte-Philomène / Bonspile,  45.498354, -74.146875,7,86010,1
86011,Sainte-Philomène / devant le civique #680,  45.483062, -74.130602,7,86011,1
86012,Sainte-Philomène / devant le civique #520,  45.473346, -74.125082,7,86012,1
86013,Sainte-Philomène / Chevalier,  45.469054, -74.117972,7,86013,1
86014,Saint-Michel / Saint-Georges,  45.461851, -74.094223,7,86014,1
86015,Notre-Dame / Saint-Jean-Baptiste (Stat.),  45.460471, -74.089004,7,86015,1
86016,Notre-Dame / Lafontaine,  45.464229, -74.080602,7,86016,1
86017,Notre-Dame / Face au civique #11,  45.466460, -74.077489,7,86017,1
86018,d'Oka / Bernier,  45.470216, -74.072631,7,86018,1
86019,d'Oka / des Collines (Parc national d'Oka),  45.475774, -74.061223,7,86019,1
86020,d'Oka / des Ostryers,  45.483980, -74.050401,7,86020,1
86021,d'Oka / devant le civique #1700 (Secondaire d'Oka),  45.489599, -74.036228,7,86021,1
86022,d'oka / stationnement du 1500 ch. d'Oka,  45.494861, -74.029395,7,86022,1
86023,d'Oka / devant le civique #1378,  45.497557, -74.024904,7,86023,1
86024,d'Oka / du Mont-Saint-Pierre,  45.499786, -74.021903,7,86024,1
86029,Clément / Parc Paul-Yvon Lauzon (Stat.),  45.523545, -73.989839,6,86029,1
86030,d'Oka / du Mont-Saint-Pierre,  45.499890, -74.022058,7,86030,1
86031,d'Oka / face au civique #1378,  45.497745, -74.024929,7,86031,1
86033,d'Oka / face au civique #1700 (Secondaire d'Oka),  45.489750, -74.036204,7,86033,1
86034,d'Oka / des Ostryers,  45.484022, -74.050589,7,86034,1
86035,d'Oka / du Calvaire (Parc national d'Oka),  45.476058, -74.061030,7,86035,1
86036,d'Oka / Bernier,  45.470425, -74.072645,7,86036,1
86037,Notre-Dame / devant le civique #11,  45.466565, -74.077736,7,86037,1
86038,Notre-Dame / Lafontaine,  45.464299, -74.080786,7,86038,1
86039,Notre-Dame / Saint-Jean-Baptiste (Stat.),  45.460629, -74.088958,7,86039,1
86040,Saint-Michel / Saint-Georges,  45.461968, -74.093942,7,86040,1
86041,Sainte-Philomène / Chevalier,  45.469184, -74.117722,7,86041,1
86042,Sainte-Philomène / face au civique #520,  45.473432, -74.124881,7,86042,1
86043,Sainte-Philomène / devant le civique #681,  45.483008, -74.130335,7,86043,1
86044,Sainte-Philomène / Bonspile,  45.498288, -74.146475,7,86044,1
86045,Route 344 / Guy-Racicot,  45.511895, -74.157491,7,86045,1
86046,du Voilier / du Timonier,  45.505912, -74.166155,7,86046,1
86047,du Paquebot / Guy-Racicot,  45.502724, -74.168269,7,86047,1
86048,de la Pointe-Aux-Anglais / devant le civique #388,  45.509852, -74.168626,8,86048,1
86049,Route 344 / Face au civique #890,  45.527021, -74.174814,8,86049,1
86050,Saint-Placide / face au civique #1735,  45.528536, -74.196244,8,86050,1
86051,Route 344 / devant le civique #2135 (stat. incitat,  45.529015, -74.200392,8,86051,1
86052,René-Lévesque / devant le civique #11,  45.527758, -74.203542,8,86052,1
86053,de l'Église / Route 344,  45.528970, -74.206475,8,86053,1
88675,Turgeon / Saint-Jacques,  45.631675, -73.830982,5,88675,1
88676,Saint-Jacques / Turgeon,  45.631930, -73.830608,5,88676,1
88677,Saint-Jacques / Vaudry,  45.633499, -73.827782,5,88677,1
88678,d'Aubervillers / de Compostelle,  45.681720, -73.741743,5,88678,1
88679,Lesage / Northcote,  45.648712, -73.784649,5,88679,1
88682,de Chambéry / des Charmettes,  45.682134, -73.794972,6,88682,1
88686,Paul-Albert / Lucien,  45.677351, -73.818830,6,88686,1
88687,Paul-Albert / Lucien,  45.677333, -73.819331,6,88687,1
88688,de Chambéry / du Nivolet,  45.675573, -73.810698,6,88688,1
88689,du Nivolet / du Colombier,  45.675934, -73.812793,6,88689,1
88691,de Fontainbleau / de Chenonceau,  45.658670, -73.818483,6,88691,1
88692,de Fontainbleau / de Braine,  45.667084, -73.825913,6,88692,1
88697,Jacques-St-André / des Violettes (2),  45.660145, -73.875155,6,88697,1
88698,des Violettes / Théoret,  45.658394, -73.879276,6,88698,1
88699,Chouinard / Bouchard,  45.657454, -73.874179,6,88699,1
88700,Théoret / Chouinard,  45.657077, -73.877675,6,88700,1
88701,Gendron / Gauvreau,  45.660629, -73.871563,6,88701,1
88702,Paul-Sicotte / Louis-Maron,  45.661008, -73.868000,6,88702,1
88715,Morris / Saint-Charles,  45.640838, -73.845765,6,88715,1
88716,Mayer / des Myosotis,  45.643858, -73.854954,6,88716,1
88718,des Violettes / des Myosotis,  45.644834, -73.851728,6,88718,1
88719,Morris / Viau,  45.643213, -73.848922,6,88719,1
88720,Morris / Viau,  45.643260, -73.849214,6,88720,1
88721,Chapleau / des Violettes,  45.644300, -73.850741,6,88721,1
88722,des Violettes / des Pétunias (1),  45.644798, -73.851433,6,88722,1
88723,des Violettes / des Giroflées,  45.645923, -73.854977,6,88723,1
88724,de la Côte-Saint-Louis / des Giroflées,  45.646489, -73.855305,6,88724,1
88727,des Milles-Îles / Filiatrault,  45.647646, -73.853078,6,88727,1
88728,des Milles-Îles / Filiatrault,  45.647622, -73.852595,6,88728,1
88729,de Montauban / Saint-François,  45.669650, -73.807375,5,88729,1
88731,de Chambéry / de Boigne,  45.675724, -73.808632,6,88731,1
88732,Saint-François / de Montauban,  45.670020, -73.807278,5,88732,1
88733,Saint-François / face au 468,  45.673581, -73.802121,6,88733,1
88735,de Fontainebleau / des Visconti,  45.666050, -73.808573,5,88735,1
88736,de Fontainebleau / de Belcaro,  45.664711, -73.807597,5,88736,1
88738,de Fontainebleau / de Richelieu,  45.661518, -73.808587,5,88738,1
88739,Hubert Gratton / Ambroise-Filion,  45.654941, -73.803832,6,88739,1
88740,de Fontainebleau / de Belcaro,  45.664558, -73.807372,5,88740,1
88741,de Chambéry / Paul-Albert,  45.674046, -73.813477,6,88741,1
88742,de Fontainbleau / de Braine,  45.667482, -73.826131,5,88742,1
88745,Westward / de Rosemère,  45.638920, -73.805807,5,88745,1
88751,des Bolets / des Cortinaires,  45.653157, -73.836468,6,88751,1
88752,des Bolets / des Cortinaires,  45.653361, -73.836395,6,88752,1
88755,de Châteauneuf / Chayer,  45.615208, -73.829151,5,88755,1
88756,de Châteauneuf / Chayer,  45.615145, -73.828852,5,88756,1
88757,des Fleurs / des Marguerites,  45.663397, -73.872547,6,88757,1
88759,Montée Oudart / du Bas-de-Sainte-Thérèse,  45.651387, -73.804890,6,88759,1
88769,Gouin / Collège Beaubois,  45.505516, -73.776379,2,88769,1
88770,Gare Sunnybrooke,  45.504520, -73.784560,2,88770,1
88771,Gare Roxboro-Pierrefonds,  45.510287, -73.812752,2,88771,1
88784,Gare Sunnybrooke,  45.504627, -73.784200,2,88784,1
88788,Sainte-Rose / Thérèse-Casgrain,  45.610156, -73.793706,3,88788,1
88790,Gauthier / Danis,  45.769556, -74.014017,7,88790,1
88792,Filion / Joseph-Fortier,  45.788928, -73.985605,7,88792,1
88793,Filion / Joseph-Fortier,  45.789080, -73.985399,7,88793,1
88794,Gouin Ouest / Wilfrid,  45.507707, -73.769095,2,88794,1
88795,Sicard / Leclerc,  45.640424, -73.854879,6,88795,1
88796,Sicard / Leclerc,  45.640441, -73.855403,6,88796,1
88797,des Amadouviers / des Chênes,  45.658438, -73.840673,6,88797,1
88798,de Matane / de Gatineau,  45.659276, -73.832958,6,88798,1
88799,Dubois / Sénécal,  45.637770, -73.835181,5,88799,1
88800,Lachaîne / Blainville Est,  45.638926, -73.837957,5,88800,1
88801,Carignan / Couturier,  45.614946, -73.825392,5,88801,1
Int506,du Climont / de Lachalade,  45.678394, -73.790865,5,Int506,0
